Sentinel_2A_Case_Study/Environment/Data/Facility-EUMETSAT_Maspalomas-To-Satellite-Satellite-Sensor-XBand_Access.txt

                                                                                                                                               14 Jun 2021 22:40:46
Satellite-Satellite-Sensor-XBand-To-Facility-EUMETSAT_Maspalomas, Facility-Matera_Station, Facility-PrudhoeBay, Facility-Svalbard_STDN_S22S:  Access Summary Report


XBand-To-EUMETSAT_Maspalomas
----------------------------
                  Access        Start Time (UTCG)           Stop Time (UTCG)        Duration (sec)
                  ------    ------------------------    ------------------------    --------------
                       1     1 Dec 2020 11:46:17.719     1 Dec 2020 12:01:17.889           900.170
                       2     1 Dec 2020 13:27:49.264     1 Dec 2020 13:37:00.816           551.552
                       3     1 Dec 2020 21:21:43.906     1 Dec 2020 21:29:47.464           483.558
                       4     1 Dec 2020 22:56:48.122     1 Dec 2020 23:11:45.000           896.878
                       5     2 Dec 2020 00:38:43.518     2 Dec 2020 00:49:21.351           637.833
                       6     2 Dec 2020 11:16:35.252     2 Dec 2020 11:31:19.046           883.795
                       7     2 Dec 2020 12:56:48.147     2 Dec 2020 13:09:09.680           741.533
                       8     2 Dec 2020 22:27:27.419     2 Dec 2020 22:41:40.341           852.921
                       9     3 Dec 2020 00:07:18.649     3 Dec 2020 00:20:40.388           801.739
                      10     3 Dec 2020 10:47:14.636     3 Dec 2020 11:00:46.552           811.916
                      11     3 Dec 2020 12:26:21.175     3 Dec 2020 12:40:27.358           846.183
                      12     3 Dec 2020 21:58:41.393     3 Dec 2020 22:11:15.592           754.199
                      13     3 Dec 2020 23:36:42.580     3 Dec 2020 23:51:22.244           879.664
                      14     4 Dec 2020 10:18:28.935     4 Dec 2020 10:29:27.514           658.579
                      15     4 Dec 2020 11:56:14.832     4 Dec 2020 12:11:09.656           894.824
                      16     4 Dec 2020 13:38:24.092     4 Dec 2020 13:45:57.054           452.963
                      17     4 Dec 2020 21:30:44.075     4 Dec 2020 21:40:18.953           574.879
                      18     4 Dec 2020 23:06:40.817     4 Dec 2020 23:21:41.552           900.734
                      19     5 Dec 2020 00:49:28.823     5 Dec 2020 00:58:38.477           549.655
                      20     5 Dec 2020 09:51:21.913     5 Dec 2020 09:56:17.647           295.734
                      21     5 Dec 2020 11:26:26.188     5 Dec 2020 11:41:21.021           894.833
                      22     5 Dec 2020 13:07:02.286     5 Dec 2020 13:18:32.786           690.501
                      23     5 Dec 2020 21:05:13.236     5 Dec 2020 21:07:15.357           122.121
                      24     5 Dec 2020 22:37:09.693     5 Dec 2020 22:51:42.762           873.069
                      25     6 Dec 2020 00:17:39.065     6 Dec 2020 00:30:18.379           759.313
                      26     6 Dec 2020 10:56:57.432     6 Dec 2020 11:11:00.426           842.995
                      27     6 Dec 2020 12:36:26.388     6 Dec 2020 12:50:04.702           818.314
                      28     6 Dec 2020 22:08:11.217     6 Dec 2020 22:21:25.315           794.098
                      29     6 Dec 2020 23:46:49.217     7 Dec 2020 00:01:10.057           860.840
                      30     7 Dec 2020 10:27:57.507     7 Dec 2020 10:39:59.427           721.921
                      31     7 Dec 2020 12:06:13.766     7 Dec 2020 12:20:57.894           884.128
                      32     7 Dec 2020 13:49:18.560     7 Dec 2020 13:54:31.044           312.484
                      33     7 Dec 2020 21:39:54.814     7 Dec 2020 21:50:41.786           646.972
                      34     7 Dec 2020 23:16:36.729     7 Dec 2020 23:31:36.025           899.297
                      35     8 Dec 2020 01:00:31.478     8 Dec 2020 01:07:39.363           427.885
                      36     8 Dec 2020 09:59:58.864     8 Dec 2020 10:07:45.277           466.412
                      37     8 Dec 2020 11:36:19.184     8 Dec 2020 11:51:19.390           900.206
                      38     8 Dec 2020 13:17:20.836     8 Dec 2020 13:27:49.292           628.457
                      39     8 Dec 2020 21:12:58.512     8 Dec 2020 21:18:56.722           358.210
                      40     8 Dec 2020 22:46:55.410     8 Dec 2020 23:01:43.058           887.648
                      41     9 Dec 2020 00:28:05.521     9 Dec 2020 00:39:51.386           705.865
                      42     9 Dec 2020 11:06:43.219     9 Dec 2020 11:21:09.910           866.691
                      43     9 Dec 2020 12:46:33.997     9 Dec 2020 12:59:37.779           783.782
                      44     9 Dec 2020 22:17:45.495     9 Dec 2020 22:31:32.177           826.682
                      45     9 Dec 2020 23:56:59.843    10 Dec 2020 00:10:55.023           835.180
                      46    10 Dec 2020 10:37:31.954    10 Dec 2020 10:50:24.042           772.088
                      47    10 Dec 2020 12:16:14.575    10 Dec 2020 12:30:42.631           868.056
                      48    10 Dec 2020 21:49:13.258    10 Dec 2020 22:00:58.895           705.637
                      49    10 Dec 2020 23:26:36.037    10 Dec 2020 23:41:28.391           892.354
                      50    11 Dec 2020 01:12:17.663    11 Dec 2020 01:15:58.087           220.423
                      51    11 Dec 2020 10:09:05.315    11 Dec 2020 10:18:42.007           576.692
                      52    11 Dec 2020 11:46:14.208    11 Dec 2020 12:01:14.402           900.194
                      53    11 Dec 2020 13:27:45.653    11 Dec 2020 13:36:57.504           551.851
                      54    11 Dec 2020 21:21:40.691    11 Dec 2020 21:29:43.798           483.107
                      55    11 Dec 2020 22:56:44.686    11 Dec 2020 23:11:41.477           896.791
                      56    12 Dec 2020 00:38:39.919    12 Dec 2020 00:49:17.949           638.031
                      57    12 Dec 2020 11:16:31.847    12 Dec 2020 11:31:15.678           883.831
                      58    12 Dec 2020 12:56:44.668    12 Dec 2020 13:09:06.432           741.764
                      59    12 Dec 2020 22:27:24.362    12 Dec 2020 22:41:37.170           852.808
                      60    13 Dec 2020 00:07:15.508    13 Dec 2020 00:20:37.281           801.773
                      61    13 Dec 2020 10:47:12.132    13 Dec 2020 11:00:43.999           811.866
                      62    13 Dec 2020 12:26:18.698    13 Dec 2020 12:40:24.972           846.274
                      63    13 Dec 2020 21:58:39.200    13 Dec 2020 22:11:13.377           754.178
                      64    13 Dec 2020 23:36:40.332    13 Dec 2020 23:51:20.065           879.732
                      65    14 Dec 2020 10:18:27.215    14 Dec 2020 10:29:25.666           658.450
                      66    14 Dec 2020 11:56:13.192    14 Dec 2020 12:11:08.049           894.857
                      67    14 Dec 2020 13:38:22.420    14 Dec 2020 13:45:55.558           453.138
                      68    14 Dec 2020 21:30:42.712    14 Dec 2020 21:40:17.676           574.963
                      69    14 Dec 2020 23:06:39.493    14 Dec 2020 23:21:40.285           900.792
                      70    15 Dec 2020 00:49:27.513    15 Dec 2020 00:58:37.250           549.738
                      71    15 Dec 2020 09:51:21.076    15 Dec 2020 09:56:16.797           295.720
                      72    15 Dec 2020 11:26:25.383    15 Dec 2020 11:41:20.192           894.809
                      73    15 Dec 2020 13:07:01.511    15 Dec 2020 13:18:32.012           690.500
                      74    15 Dec 2020 21:05:12.188    15 Dec 2020 21:07:15.407           123.219
                      75    15 Dec 2020 22:37:09.195    15 Dec 2020 22:51:42.358           873.163
                      76    16 Dec 2020 00:17:38.654    16 Dec 2020 00:30:18.000           759.347
                      77    16 Dec 2020 10:56:57.414    16 Dec 2020 11:11:00.466           843.052
                      78    16 Dec 2020 12:36:26.416    16 Dec 2020 12:50:04.753           818.338
                      79    16 Dec 2020 22:08:11.509    16 Dec 2020 22:21:25.724           794.216
                      80    16 Dec 2020 23:46:49.640    17 Dec 2020 00:01:10.444           860.804
                      81    17 Dec 2020 10:27:58.187    17 Dec 2020 10:40:00.272           722.085
                      82    17 Dec 2020 12:06:14.533    17 Dec 2020 12:20:58.703           884.170
                      83    17 Dec 2020 13:49:19.365    17 Dec 2020 13:54:31.792           312.427
                      84    17 Dec 2020 21:39:55.673    17 Dec 2020 21:50:42.915           647.242
                      85    17 Dec 2020 23:16:37.776    17 Dec 2020 23:31:37.086           899.311
                      86    18 Dec 2020 01:00:32.807    18 Dec 2020 01:07:40.246           427.439
                      87    18 Dec 2020 10:00:00.121    18 Dec 2020 10:07:46.778           466.658
                      88    18 Dec 2020 11:36:20.574    18 Dec 2020 11:51:20.786           900.213
                      89    18 Dec 2020 13:17:22.296    18 Dec 2020 13:27:50.660           628.365
                      90    18 Dec 2020 21:12:59.694    18 Dec 2020 21:18:58.767           359.073
                      91    18 Dec 2020 22:46:56.906    18 Dec 2020 23:01:44.696           887.790
                      92    19 Dec 2020 00:28:07.191    19 Dec 2020 00:39:52.942           705.751
                      93    19 Dec 2020 11:06:45.072    19 Dec 2020 11:21:11.696           866.624
                      94    19 Dec 2020 12:46:35.906    19 Dec 2020 12:59:39.520           783.614
                      95    19 Dec 2020 22:17:47.449    19 Dec 2020 22:31:34.392           826.943
                      96    19 Dec 2020 23:57:01.972    20 Dec 2020 00:10:57.146           835.174
                      97    20 Dec 2020 10:37:34.277    20 Dec 2020 10:50:26.310           772.032
                      98    20 Dec 2020 12:16:16.956    20 Dec 2020 12:30:44.831           867.875
                      99    20 Dec 2020 21:49:15.359    20 Dec 2020 22:01:01.387           706.029
                     100    20 Dec 2020 23:26:38.318    20 Dec 2020 23:41:30.740           892.422
                     101    21 Dec 2020 01:12:20.522    21 Dec 2020 01:15:59.876           219.354
                     102    21 Dec 2020 10:09:07.891    21 Dec 2020 10:18:44.621           576.731
                     103    21 Dec 2020 11:46:16.800    21 Dec 2020 12:01:16.902           900.103
                     104    21 Dec 2020 13:27:48.287    21 Dec 2020 13:36:59.910           551.623
                     105    21 Dec 2020 21:21:43.007    21 Dec 2020 21:29:46.920           483.914
                     106    21 Dec 2020 22:56:47.360    21 Dec 2020 23:11:44.308           896.949
                     107    22 Dec 2020 00:38:42.812    22 Dec 2020 00:49:20.600           637.789
                     108    22 Dec 2020 11:16:34.823    22 Dec 2020 11:31:18.563           883.740
                     109    22 Dec 2020 12:56:47.687    22 Dec 2020 13:09:09.216           741.529
                     110    22 Dec 2020 22:27:27.126    22 Dec 2020 22:41:40.163           853.037
                     111    23 Dec 2020 00:07:18.425    23 Dec 2020 00:20:40.141           801.716
                     112    23 Dec 2020 10:47:14.705    23 Dec 2020 11:00:46.564           811.860
                     113    23 Dec 2020 12:26:21.231    23 Dec 2020 12:40:27.382           846.151
                     114    23 Dec 2020 21:58:41.573    23 Dec 2020 22:11:15.963           754.390
                     115    23 Dec 2020 23:36:42.846    23 Dec 2020 23:51:22.514           879.668
                     116    24 Dec 2020 10:18:29.498    24 Dec 2020 10:29:28.057           658.558
                     117    24 Dec 2020 11:56:15.375    24 Dec 2020 12:11:10.159           894.784
                     118    24 Dec 2020 13:38:24.619    24 Dec 2020 13:45:57.553           452.934
                     119    24 Dec 2020 21:30:44.648    24 Dec 2020 21:40:19.906           575.258
                     120    24 Dec 2020 23:06:41.573    24 Dec 2020 23:21:42.352           900.779
                     121    25 Dec 2020 00:49:29.750    25 Dec 2020 00:58:39.116           549.367
                     122    25 Dec 2020 09:51:22.886    25 Dec 2020 09:56:18.862           295.976
                     123    25 Dec 2020 11:26:27.232    25 Dec 2020 11:41:22.066           894.834
                     124    25 Dec 2020 13:07:03.329    25 Dec 2020 13:18:33.797           690.468
                     125    25 Dec 2020 21:05:13.236    25 Dec 2020 21:07:17.826           124.591
                     126    25 Dec 2020 22:37:10.910    25 Dec 2020 22:51:44.102           873.192
                     127    26 Dec 2020 00:17:40.418    26 Dec 2020 00:30:19.598           759.180
                     128    26 Dec 2020 10:56:58.984    26 Dec 2020 11:11:02.028           843.044
                     129    26 Dec 2020 12:36:27.963    26 Dec 2020 12:50:06.238           818.276
                     130    26 Dec 2020 22:08:12.902    26 Dec 2020 22:21:27.214           794.312
                     131    26 Dec 2020 23:46:51.064    27 Dec 2020 00:01:11.836           860.772
                     132    27 Dec 2020 10:27:59.546    27 Dec 2020 10:40:01.595           722.048
                     133    27 Dec 2020 12:06:15.840    27 Dec 2020 12:20:59.941           884.101
                     134    27 Dec 2020 13:49:20.700    27 Dec 2020 13:54:32.974           312.274
                     135    27 Dec 2020 21:39:56.898    27 Dec 2020 21:50:44.266           647.368
                     136    27 Dec 2020 23:16:39.045    27 Dec 2020 23:31:38.339           899.295
                     137    28 Dec 2020 01:00:34.171    28 Dec 2020 01:07:41.335           427.164
                     138    28 Dec 2020 10:00:01.291    28 Dec 2020 10:07:48.070           466.779
                     139    28 Dec 2020 11:36:21.755    28 Dec 2020 11:51:21.974           900.218
                     140    28 Dec 2020 13:17:23.452    28 Dec 2020 13:27:51.777           628.325
                     141    28 Dec 2020 21:13:00.762    28 Dec 2020 21:19:00.009           359.247
                     142    28 Dec 2020 22:46:58.174    28 Dec 2020 23:01:45.916           887.742
                     143    29 Dec 2020 00:28:08.509    29 Dec 2020 00:39:54.066           705.557
                     144    29 Dec 2020 11:06:46.289    29 Dec 2020 11:21:13.034           866.746
                     145    29 Dec 2020 12:46:37.112    29 Dec 2020 12:59:40.786           783.675
                     146    29 Dec 2020 22:17:48.668    29 Dec 2020 22:31:35.594           826.926
                     147    29 Dec 2020 23:57:03.230    30 Dec 2020 00:10:58.279           835.049
                     148    30 Dec 2020 10:37:35.504    30 Dec 2020 10:50:27.738           772.233
                     149    30 Dec 2020 12:16:18.194    30 Dec 2020 12:30:46.162           867.968
                     150    30 Dec 2020 21:49:16.825    30 Dec 2020 22:01:02.888           706.062
                     151    30 Dec 2020 23:26:39.871    30 Dec 2020 23:41:32.196           892.325
                     152    31 Dec 2020 01:12:22.533    31 Dec 2020 01:16:00.908           218.375
                     153    31 Dec 2020 10:09:09.205    31 Dec 2020 10:18:46.269           577.064
                     154    31 Dec 2020 11:46:18.236    31 Dec 2020 12:01:18.396           900.161
                     155    31 Dec 2020 13:27:49.790    31 Dec 2020 13:37:01.293           551.503
                     156    31 Dec 2020 21:21:44.343    31 Dec 2020 21:29:48.378           484.035
                     157    31 Dec 2020 22:56:48.798    31 Dec 2020 23:11:45.705           896.907
                     158     1 Jan 2021 00:38:44.355     1 Jan 2021 00:49:21.921           637.566
                     159     1 Jan 2021 11:16:36.173     1 Jan 2021 11:31:19.988           883.815
                     160     1 Jan 2021 12:56:49.086     1 Jan 2021 13:09:10.558           741.471
                     161     1 Jan 2021 22:27:28.470     1 Jan 2021 22:41:41.506           853.036
                     162     2 Jan 2021 00:07:19.842     2 Jan 2021 00:20:41.441           801.599
                     163     2 Jan 2021 10:47:15.947     2 Jan 2021 11:00:47.911           811.963
                     164     2 Jan 2021 12:26:22.527     2 Jan 2021 12:40:28.650           846.123
                     165     2 Jan 2021 21:58:42.787     2 Jan 2021 22:11:17.225           754.439
                     166     2 Jan 2021 23:36:44.122     2 Jan 2021 23:51:23.743           879.622
                     167     3 Jan 2021 10:18:30.633     3 Jan 2021 10:29:29.369           658.736
                     168     3 Jan 2021 11:56:16.589     3 Jan 2021 12:11:11.362           894.773
                     169     3 Jan 2021 13:38:25.925     3 Jan 2021 13:45:58.627           452.701
                     170     3 Jan 2021 21:30:45.747     3 Jan 2021 21:40:21.105           575.358
                     171     3 Jan 2021 23:06:42.740     3 Jan 2021 23:21:43.515           900.775
                     172     4 Jan 2021 00:49:31.008     4 Jan 2021 00:58:40.215           549.207
                     173     4 Jan 2021 09:51:23.804     4 Jan 2021 09:56:20.202           296.399
                     174     4 Jan 2021 11:26:28.367     4 Jan 2021 11:41:23.207           894.840
                     175     4 Jan 2021 13:07:04.524     4 Jan 2021 13:18:34.860           690.336
                     176     4 Jan 2021 21:05:14.019     4 Jan 2021 21:07:19.219           125.199
                     177     4 Jan 2021 22:37:12.000     4 Jan 2021 22:51:45.192           873.192
                     178     5 Jan 2021 00:17:41.571     5 Jan 2021 00:30:20.650           759.079
                     179     5 Jan 2021 10:57:00.014     5 Jan 2021 11:11:03.125           843.111
                     180     5 Jan 2021 12:36:29.038     5 Jan 2021 12:50:07.264           818.226
                     181     5 Jan 2021 22:08:13.907     5 Jan 2021 22:21:28.214           794.307
                     182     5 Jan 2021 23:46:52.125     6 Jan 2021 00:01:12.805           860.681
                     183     6 Jan 2021 10:28:00.445     6 Jan 2021 10:40:02.651           722.206
                     184     6 Jan 2021 12:06:16.810     6 Jan 2021 12:21:00.933           884.123
                     185     6 Jan 2021 13:49:21.786     6 Jan 2021 13:54:33.809           312.023
                     186     6 Jan 2021 21:39:57.824     6 Jan 2021 21:50:45.201           647.377
                     187     6 Jan 2021 23:16:40.027     6 Jan 2021 23:31:39.245           899.218
                     188     7 Jan 2021 01:00:35.301     7 Jan 2021 01:07:42.115           426.814
                     189     7 Jan 2021 10:00:02.049     7 Jan 2021 10:07:49.173           467.123
                     190     7 Jan 2021 11:36:22.638     7 Jan 2021 11:51:22.924           900.286
                     191     7 Jan 2021 13:17:24.376     7 Jan 2021 13:27:52.651           628.275
                     192     7 Jan 2021 21:13:01.457     7 Jan 2021 21:19:00.890           359.433
                     193     7 Jan 2021 22:46:58.939     7 Jan 2021 23:01:46.746           887.807
                     194     8 Jan 2021 00:28:09.298     8 Jan 2021 00:39:54.885           705.587
                     195     8 Jan 2021 11:06:47.052     8 Jan 2021 11:21:13.734           866.682
                     196     8 Jan 2021 12:46:37.926     8 Jan 2021 12:59:41.435           783.509
                     197     8 Jan 2021 22:17:49.366     8 Jan 2021 22:31:36.341           826.975
                     198     8 Jan 2021 23:57:03.955     9 Jan 2021 00:10:59.018           835.063
                     199     9 Jan 2021 10:37:36.173     9 Jan 2021 10:50:28.373           772.201
                     200     9 Jan 2021 12:16:18.911     9 Jan 2021 12:30:46.769           867.859
                     201     9 Jan 2021 21:49:17.453     9 Jan 2021 22:01:03.568           706.115
                     202     9 Jan 2021 23:26:40.525     9 Jan 2021 23:41:32.875           892.350
                     203    10 Jan 2021 01:12:23.272    10 Jan 2021 01:16:01.534           218.262
                     204    10 Jan 2021 10:09:09.799    10 Jan 2021 10:18:46.856           577.057
                     205    10 Jan 2021 11:46:18.878    10 Jan 2021 12:01:18.943           900.065
                     206    10 Jan 2021 13:27:50.517    10 Jan 2021 13:37:01.754           551.237
                     207    10 Jan 2021 21:21:44.907    10 Jan 2021 21:29:49.012           484.106
                     208    10 Jan 2021 22:56:49.389    10 Jan 2021 23:11:46.334           896.945
                     209    11 Jan 2021 00:38:44.977    11 Jan 2021 00:49:22.547           637.570
                     210    11 Jan 2021 11:16:36.742    11 Jan 2021 11:31:20.503           883.762
                     211    11 Jan 2021 12:56:49.704    11 Jan 2021 13:09:11.015           741.311
                     212    11 Jan 2021 22:27:28.984    11 Jan 2021 22:41:42.059           853.075
                     213    12 Jan 2021 00:07:20.380    12 Jan 2021 00:20:41.996           801.617
                     214    12 Jan 2021 10:47:16.454    12 Jan 2021 11:00:48.397           811.943
                     215    12 Jan 2021 12:26:23.077    12 Jan 2021 12:40:29.099           846.022
                     216    12 Jan 2021 21:58:43.263    12 Jan 2021 22:11:17.737           754.474
                     217    12 Jan 2021 23:36:44.620    12 Jan 2021 23:51:24.258           879.638
                     218    13 Jan 2021 10:18:31.066    13 Jan 2021 10:29:29.801           658.735
                     219    13 Jan 2021 11:56:17.073    13 Jan 2021 12:11:11.782           894.709
                     220    13 Jan 2021 13:38:26.509    13 Jan 2021 13:45:58.934           452.425
                     221    13 Jan 2021 21:30:46.165    13 Jan 2021 21:40:21.553           575.388
                     222    13 Jan 2021 23:06:43.180    13 Jan 2021 23:21:43.965           900.786
                     223    14 Jan 2021 00:49:31.486    14 Jan 2021 00:58:40.657           549.171
                     224    14 Jan 2021 09:51:24.131    14 Jan 2021 09:56:20.684           296.552
                     225    14 Jan 2021 11:26:28.775    14 Jan 2021 11:41:23.574           894.799
                     226    14 Jan 2021 13:07:04.978    14 Jan 2021 13:18:35.178           690.200
                     227    14 Jan 2021 21:05:14.350    14 Jan 2021 21:07:19.603           125.253
                     228    14 Jan 2021 22:37:12.359    14 Jan 2021 22:51:45.571           873.212
                     229    15 Jan 2021 00:17:41.949    15 Jan 2021 00:30:21.034           759.085
                     230    15 Jan 2021 10:57:00.356    15 Jan 2021 11:11:03.426           843.069
                     231    15 Jan 2021 12:36:29.414    15 Jan 2021 12:50:07.522           818.108
                     232    15 Jan 2021 22:08:14.178    15 Jan 2021 22:21:28.541           794.362
                     233    15 Jan 2021 23:46:52.408    16 Jan 2021 00:01:13.140           860.732
                     234    16 Jan 2021 10:28:00.735    16 Jan 2021 10:40:02.887           722.151
                     235    16 Jan 2021 12:06:17.128    16 Jan 2021 12:21:01.128           884.000
                     236    16 Jan 2021 13:49:22.273    16 Jan 2021 13:54:33.847           311.573
                     237    16 Jan 2021 21:39:58.021    16 Jan 2021 21:50:45.482           647.462
                     238    16 Jan 2021 23:16:40.233    16 Jan 2021 23:31:39.535           899.302
                     239    17 Jan 2021 01:00:35.493    17 Jan 2021 01:07:42.446           426.954
                     240    17 Jan 2021 10:00:02.275    17 Jan 2021 10:07:49.308           467.033
                     241    17 Jan 2021 11:36:22.887    17 Jan 2021 11:51:23.054           900.167
                     242    17 Jan 2021 13:17:24.669    17 Jan 2021 13:27:52.711           628.042
                     243    17 Jan 2021 21:13:01.686    17 Jan 2021 21:19:01.113           359.428
                     244    17 Jan 2021 22:46:59.193    17 Jan 2021 23:01:46.969           887.776
                     245    18 Jan 2021 00:28:09.597    18 Jan 2021 00:39:55.092           705.495
                     246    18 Jan 2021 11:06:47.233    18 Jan 2021 11:21:13.984           866.751
                     247    18 Jan 2021 12:46:38.132    18 Jan 2021 12:59:41.644           783.512
                     248    18 Jan 2021 22:17:49.537    18 Jan 2021 22:31:36.490           826.953
                     249    18 Jan 2021 23:57:04.157    19 Jan 2021 00:10:59.157           835.000
                     250    19 Jan 2021 10:37:36.252    19 Jan 2021 10:50:28.553           772.301
                     251    19 Jan 2021 12:16:19.023    19 Jan 2021 12:30:46.886           867.864
                     252    19 Jan 2021 21:49:17.500    19 Jan 2021 22:01:03.624           706.124
                     253    19 Jan 2021 23:26:40.594    19 Jan 2021 23:41:32.921           892.327
                     254    20 Jan 2021 01:12:23.463    20 Jan 2021 01:16:01.472           218.009
                     255    20 Jan 2021 10:09:09.766    20 Jan 2021 10:18:46.982           577.216
                     256    20 Jan 2021 11:46:18.908    20 Jan 2021 12:01:19.003           900.095
                     257    20 Jan 2021 13:27:50.585    20 Jan 2021 13:37:01.758           551.174
                     258    20 Jan 2021 21:21:44.879    20 Jan 2021 21:29:49.012           484.134
                     259    20 Jan 2021 22:56:49.396    20 Jan 2021 23:11:46.320           896.924
                     260    21 Jan 2021 00:38:45.028    21 Jan 2021 00:49:22.507           637.478
                     261    21 Jan 2021 11:16:36.692    21 Jan 2021 11:31:20.485           883.793
                     262    21 Jan 2021 12:56:49.682    21 Jan 2021 13:09:10.964           741.282
                     263    21 Jan 2021 22:27:28.908    21 Jan 2021 22:41:41.972           853.064
                     264    22 Jan 2021 00:07:20.337    22 Jan 2021 00:20:41.893           801.557
                     265    22 Jan 2021 10:47:16.313    22 Jan 2021 11:00:48.335           812.022
                     266    22 Jan 2021 12:26:22.964    22 Jan 2021 12:40:28.981           846.017
                     267    22 Jan 2021 21:58:43.094    22 Jan 2021 22:11:17.565           754.472
                     268    22 Jan 2021 23:36:44.479    22 Jan 2021 23:51:24.074           879.595
                     269    23 Jan 2021 10:18:30.827    23 Jan 2021 10:29:29.694           658.867
                     270    23 Jan 2021 11:56:16.875    23 Jan 2021 12:11:11.601           894.725
                     271    23 Jan 2021 13:38:26.362    23 Jan 2021 13:45:58.697           452.335
                     272    23 Jan 2021 21:30:45.920    23 Jan 2021 21:40:21.322           575.403
                     273    23 Jan 2021 23:06:42.967    23 Jan 2021 23:21:43.722           900.755
                     274    24 Jan 2021 00:49:31.329    24 Jan 2021 00:58:40.374           549.045
                     275    24 Jan 2021 09:51:23.702    24 Jan 2021 09:56:20.582           296.880
                     276    24 Jan 2021 11:26:28.508    24 Jan 2021 11:41:23.341           894.834
                     277    24 Jan 2021 13:07:04.744    24 Jan 2021 13:18:34.903           690.159
                     278    24 Jan 2021 21:05:13.951    24 Jan 2021 21:07:19.426           125.476
                     279    24 Jan 2021 22:37:12.084    24 Jan 2021 22:51:45.293           873.209
                     280    25 Jan 2021 00:17:41.711    25 Jan 2021 00:30:20.738           759.028
                     281    25 Jan 2021 10:57:00.019    25 Jan 2021 11:11:03.136           843.117
                     282    25 Jan 2021 12:36:29.112    25 Jan 2021 12:50:07.202           818.090
                     283    25 Jan 2021 22:08:13.839    25 Jan 2021 22:21:28.199           794.360
                     284    25 Jan 2021 23:46:52.099    26 Jan 2021 00:01:12.788           860.689
                     285    26 Jan 2021 10:28:00.331    26 Jan 2021 10:40:02.512           722.181
                     286    26 Jan 2021 12:06:16.753    26 Jan 2021 12:21:00.747           883.994
                     287    26 Jan 2021 13:49:21.988    26 Jan 2021 13:54:33.356           311.368
                     288    26 Jan 2021 21:39:57.602    26 Jan 2021 21:50:45.089           647.487
                     289    26 Jan 2021 23:16:39.830    26 Jan 2021 23:31:39.137           899.308
                     290    27 Jan 2021 01:00:35.122    27 Jan 2021 01:07:42.031           426.909
                     291    27 Jan 2021 10:00:01.807    27 Jan 2021 10:07:48.927           467.120
                     292    27 Jan 2021 11:36:22.452    27 Jan 2021 11:51:22.605           900.152
                     293    27 Jan 2021 13:17:24.284    27 Jan 2021 13:27:52.243           627.959
                     294    27 Jan 2021 21:13:01.224    27 Jan 2021 21:19:00.685           359.461
                     295    27 Jan 2021 22:46:58.750    27 Jan 2021 23:01:46.535           887.784
                     296    28 Jan 2021 00:28:09.172    28 Jan 2021 00:39:54.655           705.483
                     297    28 Jan 2021 11:06:46.758    28 Jan 2021 11:21:13.491           866.733
                     298    28 Jan 2021 12:46:37.680    28 Jan 2021 12:59:41.126           783.447
                     299    28 Jan 2021 22:17:49.032    28 Jan 2021 22:31:35.998           826.966
                     300    28 Jan 2021 23:57:03.659    29 Jan 2021 00:10:58.669           835.010
                     301    29 Jan 2021 10:37:35.729    29 Jan 2021 10:50:28.013           772.284
                     302    29 Jan 2021 12:16:18.521    29 Jan 2021 12:30:46.352           867.831
                     303    29 Jan 2021 21:49:16.947    29 Jan 2021 22:01:03.088           706.141
                     304    29 Jan 2021 23:26:40.043    29 Jan 2021 23:41:32.393           892.351
                     305    30 Jan 2021 01:12:22.893    30 Jan 2021 01:16:00.979           218.086
                     306    30 Jan 2021 10:09:09.172    30 Jan 2021 10:18:46.393           577.220
                     307    30 Jan 2021 11:46:18.338    30 Jan 2021 12:01:18.419           900.081
                     308    30 Jan 2021 13:27:50.042    30 Jan 2021 13:37:01.150           551.107
                     309    30 Jan 2021 21:21:44.269    30 Jan 2021 21:29:48.383           484.114
                     310    30 Jan 2021 22:56:48.775    30 Jan 2021 23:11:45.706           896.932
                     311    31 Jan 2021 00:38:44.403    31 Jan 2021 00:49:21.905           637.503
                     312    31 Jan 2021 11:16:36.054    31 Jan 2021 11:31:19.861           883.807
                     313    31 Jan 2021 12:56:49.059    31 Jan 2021 13:09:10.328           741.269
                     314    31 Jan 2021 22:27:28.239    31 Jan 2021 22:41:41.310           853.071
                     315     1 Feb 2021 00:07:19.663     1 Feb 2021 00:20:41.243           801.581
                     316     1 Feb 2021 10:47:15.611     1 Feb 2021 11:00:47.622           812.011
                     317     1 Feb 2021 12:26:22.270     1 Feb 2021 12:40:28.252           845.982
                     318     1 Feb 2021 21:58:42.358     1 Feb 2021 22:11:16.827           754.469
                     319     1 Feb 2021 23:36:43.735     1 Feb 2021 23:51:23.351           879.617
                     320     2 Feb 2021 10:18:30.050     2 Feb 2021 10:29:28.899           658.849
                     321     2 Feb 2021 11:56:16.102     2 Feb 2021 12:11:10.801           894.699
                     322     2 Feb 2021 13:38:25.625     2 Feb 2021 13:45:57.870           452.245
                     323     2 Feb 2021 21:30:45.125     2 Feb 2021 21:40:20.484           575.360
                     324     2 Feb 2021 23:06:42.147     2 Feb 2021 23:21:42.910           900.763
                     325     3 Feb 2021 00:49:30.486     3 Feb 2021 00:58:39.592           549.106
                     326     3 Feb 2021 09:51:22.841     3 Feb 2021 09:56:19.708           296.867
                     327     3 Feb 2021 11:26:27.655     3 Feb 2021 11:41:22.477           894.822
                     328     3 Feb 2021 13:07:03.895     3 Feb 2021 13:18:34.015           690.120
                     329     3 Feb 2021 21:05:13.218     3 Feb 2021 21:07:18.345           125.127
                     330     3 Feb 2021 22:37:11.182     3 Feb 2021 22:51:44.379           873.197
                     331     4 Feb 2021 00:17:40.794     4 Feb 2021 00:30:19.843           759.049
                     332     4 Feb 2021 10:56:59.069     4 Feb 2021 11:11:02.180           843.111
                     333     4 Feb 2021 12:36:28.172     4 Feb 2021 12:50:06.235           818.063
                     334     4 Feb 2021 22:08:12.863     4 Feb 2021 22:21:27.194           794.332
                     335     4 Feb 2021 23:46:51.105     5 Feb 2021 00:01:11.805           860.700
                     336     5 Feb 2021 10:27:59.278     5 Feb 2021 10:40:01.506           722.228
                     337     5 Feb 2021 12:06:15.723     5 Feb 2021 12:20:59.713           883.990
                     338     5 Feb 2021 13:49:21.010     5 Feb 2021 13:54:32.282           311.272
                     339     5 Feb 2021 21:39:56.565     5 Feb 2021 21:50:43.972           647.407
                     340     5 Feb 2021 23:16:38.777     5 Feb 2021 23:31:38.048           899.270
                     341     6 Feb 2021 01:00:34.070     6 Feb 2021 01:07:40.955           426.885
                     342     6 Feb 2021 10:00:00.637     6 Feb 2021 10:07:47.856           467.219
                     343     6 Feb 2021 11:36:21.336     6 Feb 2021 11:51:21.515           900.180
                     344     6 Feb 2021 13:17:23.191     6 Feb 2021 13:27:51.141           627.950
                     345     6 Feb 2021 21:13:00.157     6 Feb 2021 21:18:59.447           359.290
                     346     6 Feb 2021 22:46:57.629     6 Feb 2021 23:01:45.366           887.737
                     347     7 Feb 2021 00:28:08.053     7 Feb 2021 00:39:53.500           705.447
                     348     7 Feb 2021 11:06:45.550     7 Feb 2021 11:21:12.347           866.797
                     349     7 Feb 2021 12:46:36.501     7 Feb 2021 12:59:39.954           783.452
                     350     7 Feb 2021 22:17:47.847     7 Feb 2021 22:31:34.753           826.906
                     351     7 Feb 2021 23:57:02.479     8 Feb 2021 00:10:57.436           834.957
                     352     8 Feb 2021 10:37:34.447     8 Feb 2021 10:50:26.813           772.367
                     353     8 Feb 2021 12:16:17.268     8 Feb 2021 12:30:45.124           867.856
                     354     8 Feb 2021 21:49:15.717     8 Feb 2021 22:01:01.773           706.056
                     355     8 Feb 2021 23:26:38.815     8 Feb 2021 23:41:31.098           892.283
                     356     9 Feb 2021 01:12:21.760     9 Feb 2021 01:15:59.612           217.852
                     357     9 Feb 2021 10:09:07.801     9 Feb 2021 10:18:45.172           577.372
                     358     9 Feb 2021 11:46:17.009     9 Feb 2021 12:01:17.130           900.121
                     359     9 Feb 2021 13:27:48.747     9 Feb 2021 13:36:59.828           551.080
                     360     9 Feb 2021 21:21:42.994     9 Feb 2021 21:29:47.002           484.008
                     361     9 Feb 2021 22:56:47.485     9 Feb 2021 23:11:44.363           896.878
                     362    10 Feb 2021 00:38:43.131    10 Feb 2021 00:49:20.565           637.434
                     363    10 Feb 2021 11:16:34.677    10 Feb 2021 11:31:18.529           883.852
                     364    10 Feb 2021 12:56:47.718    10 Feb 2021 13:09:08.954           741.236
                     365    10 Feb 2021 22:27:26.886    10 Feb 2021 22:41:39.911           853.025
                     366    11 Feb 2021 00:07:18.323    11 Feb 2021 00:20:39.852           801.530
                     367    11 Feb 2021 10:47:14.179    11 Feb 2021 11:00:46.242           812.063
                     368    11 Feb 2021 12:26:20.874    11 Feb 2021 12:40:26.867           845.993
                     369    11 Feb 2021 21:58:40.949    11 Feb 2021 22:11:15.380           754.431
                     370    11 Feb 2021 23:36:42.333    11 Feb 2021 23:51:21.915           879.582
                     371    12 Feb 2021 10:18:28.611    12 Feb 2021 10:29:27.507           658.896
                     372    12 Feb 2021 11:56:14.707    12 Feb 2021 12:11:09.421           894.714
                     373    12 Feb 2021 13:38:24.266    12 Feb 2021 13:45:56.451           452.185
                     374    12 Feb 2021 21:30:43.778    12 Feb 2021 21:40:19.109           575.332
                     375    12 Feb 2021 23:06:40.810    12 Feb 2021 23:21:41.543           900.733
                     376    13 Feb 2021 00:49:29.176    13 Feb 2021 00:58:38.214           549.038
                     377    13 Feb 2021 09:51:21.467    13 Feb 2021 09:56:18.567           297.100
                     378    13 Feb 2021 11:26:26.376    13 Feb 2021 11:41:21.242           894.867
                     379    13 Feb 2021 13:07:02.693    13 Feb 2021 13:18:32.796           690.103
                     380    13 Feb 2021 21:05:12.022    13 Feb 2021 21:07:17.284           125.262
                     381    13 Feb 2021 22:37:10.071    13 Feb 2021 22:51:43.254           873.184
                     382    14 Feb 2021 00:17:39.709    14 Feb 2021 00:30:18.708           758.999
                     383    14 Feb 2021 10:56:58.138    14 Feb 2021 11:11:01.301           843.163
                     384    14 Feb 2021 12:36:27.278    14 Feb 2021 12:50:05.395           818.117
                     385    14 Feb 2021 22:08:12.063    14 Feb 2021 22:21:26.409           794.346
                     386    14 Feb 2021 23:46:50.344    15 Feb 2021 00:01:11.001           860.657
                     387    15 Feb 2021 10:27:58.652    15 Feb 2021 10:40:00.974           722.322
                     388    15 Feb 2021 12:06:15.126    15 Feb 2021 12:20:59.188           884.062
                     389    15 Feb 2021 13:49:20.382    15 Feb 2021 13:54:31.781           311.399
                     390    15 Feb 2021 21:39:56.098    15 Feb 2021 21:50:43.581           647.483
                     391    15 Feb 2021 23:16:38.377    15 Feb 2021 23:31:37.619           899.243
                     392    16 Feb 2021 01:00:33.790    16 Feb 2021 01:07:40.475           426.685
                     393    16 Feb 2021 10:00:00.352    16 Feb 2021 10:07:47.720           467.369
                     394    16 Feb 2021 11:36:21.097    16 Feb 2021 11:51:21.337           900.240
                     395    16 Feb 2021 13:17:22.951    16 Feb 2021 13:27:50.961           628.010
                     396    16 Feb 2021 21:12:59.910    16 Feb 2021 21:18:59.505           359.595
                     397    16 Feb 2021 22:46:57.547    16 Feb 2021 23:01:45.296           887.748
                     398    17 Feb 2021 00:28:08.034    17 Feb 2021 00:39:53.408           705.374
                     399    17 Feb 2021 11:06:45.654    17 Feb 2021 11:21:12.489           866.834
                     400    17 Feb 2021 12:46:36.588    17 Feb 2021 12:59:40.090           783.503
                     401    17 Feb 2021 22:17:48.069    17 Feb 2021 22:31:35.051           826.981
                     402    17 Feb 2021 23:57:02.764    18 Feb 2021 00:10:57.692           834.928
                     403    18 Feb 2021 10:37:34.852    18 Feb 2021 10:50:27.270           772.418
                     404    18 Feb 2021 12:16:17.652    18 Feb 2021 12:30:45.543           867.891
                     405    18 Feb 2021 21:49:16.188    18 Feb 2021 22:01:02.379           706.191
                     406    18 Feb 2021 23:26:39.366    18 Feb 2021 23:41:31.640           892.273
                     407    19 Feb 2021 01:12:22.544    19 Feb 2021 01:15:59.849           217.304
                     408    19 Feb 2021 10:09:08.478    19 Feb 2021 10:18:45.904           577.426
                     409    19 Feb 2021 11:46:17.661    19 Feb 2021 12:01:17.828           900.167
                     410    19 Feb 2021 13:27:49.344    19 Feb 2021 13:37:00.560           551.216
                     411    19 Feb 2021 21:21:43.628    19 Feb 2021 21:29:47.906           484.279
                     412    19 Feb 2021 22:56:48.246    19 Feb 2021 23:11:45.143           896.897
                     413    20 Feb 2021 00:38:43.906    20 Feb 2021 00:49:21.224           637.319
                     414    20 Feb 2021 11:16:35.560    20 Feb 2021 11:31:19.395           883.835
                     415    20 Feb 2021 12:56:48.526    20 Feb 2021 13:09:09.829           741.303
                     416    20 Feb 2021 22:27:27.823    20 Feb 2021 22:41:40.898           853.075
                     417    21 Feb 2021 00:07:19.267    21 Feb 2021 00:20:40.732           801.466
                     418    21 Feb 2021 10:47:15.291    21 Feb 2021 11:00:47.333           812.042
                     419    21 Feb 2021 12:26:21.884    21 Feb 2021 12:40:27.852           845.968
                     420    21 Feb 2021 21:58:42.037    21 Feb 2021 22:11:16.566           754.529
                     421    21 Feb 2021 23:36:43.466    21 Feb 2021 23:51:23.020           879.554
                     422    22 Feb 2021 10:18:29.865    22 Feb 2021 10:29:28.679           658.814
                     423    22 Feb 2021 11:56:15.850    22 Feb 2021 12:11:10.554           894.704
                     424    22 Feb 2021 13:38:25.273    22 Feb 2021 13:45:57.680           452.407
                     425    22 Feb 2021 21:30:44.893    22 Feb 2021 21:40:20.409           575.517
                     426    22 Feb 2021 23:06:41.989    22 Feb 2021 23:21:42.731           900.742
                     427    23 Feb 2021 00:49:30.392    23 Feb 2021 00:58:39.301           548.908
                     428    23 Feb 2021 09:51:22.909    23 Feb 2021 09:56:19.525           296.616
                     429    23 Feb 2021 11:26:27.560    23 Feb 2021 11:41:22.370           894.809
                     430    23 Feb 2021 13:07:03.729    23 Feb 2021 13:18:33.954           690.225
                     431    23 Feb 2021 21:05:12.699    23 Feb 2021 21:07:18.887           126.188
                     432    23 Feb 2021 22:37:11.174    23 Feb 2021 22:51:44.375           873.201
                     433    24 Feb 2021 00:17:40.811    24 Feb 2021 00:30:19.757           758.946
                     434    24 Feb 2021 10:56:59.194    24 Feb 2021 11:11:02.282           843.087
                     435    24 Feb 2021 12:36:28.221    24 Feb 2021 12:50:06.361           818.140
                     436    24 Feb 2021 22:08:13.044    24 Feb 2021 22:21:27.419           794.375
                     437    24 Feb 2021 23:46:51.312    25 Feb 2021 00:01:11.950           860.638
                     438    25 Feb 2021 10:27:59.634    25 Feb 2021 10:40:01.808           722.174
                     439    25 Feb 2021 12:06:15.995    25 Feb 2021 12:21:00.037           884.042
                     440    25 Feb 2021 13:49:21.034    25 Feb 2021 13:54:32.807           311.772
                     441    25 Feb 2021 21:39:56.936    25 Feb 2021 21:50:44.441           647.505
                     442    25 Feb 2021 23:16:39.196    25 Feb 2021 23:31:38.421           899.225
                     443    26 Feb 2021 01:00:34.570    26 Feb 2021 01:07:41.169           426.599
                     444    26 Feb 2021 10:00:01.241    26 Feb 2021 10:07:48.316           467.075
                     445    26 Feb 2021 11:36:21.828    26 Feb 2021 11:51:22.028           900.201
                     446    26 Feb 2021 13:17:23.562    26 Feb 2021 13:27:51.683           628.121
                     447    26 Feb 2021 21:13:00.601    26 Feb 2021 21:19:00.210           359.609
                     448    26 Feb 2021 22:46:58.212    26 Feb 2021 23:01:45.940           887.728
                     449    27 Feb 2021 00:28:08.647    27 Feb 2021 00:39:53.994           705.347
                     450    27 Feb 2021 11:06:46.252    27 Feb 2021 11:21:13.006           866.754
                     451    27 Feb 2021 12:46:37.103    27 Feb 2021 12:59:40.662           783.558
                     452    27 Feb 2021 22:17:48.603    27 Feb 2021 22:31:35.538           826.935
                     453    27 Feb 2021 23:57:03.241    28 Feb 2021 00:10:58.150           834.910
                     454    28 Feb 2021 10:37:35.347    28 Feb 2021 10:50:27.634           772.287
                     455    28 Feb 2021 12:16:18.069    28 Feb 2021 12:30:45.989           867.920
                     456    28 Feb 2021 21:49:16.616    28 Feb 2021 22:01:02.742           706.126
                     457    28 Feb 2021 23:26:39.728    28 Feb 2021 23:41:31.986           892.258
                     458     1 Mar 2021 01:12:22.778     1 Mar 2021 01:16:00.304           217.526
                     459     1 Mar 2021 10:09:08.926     1 Mar 2021 10:18:46.106           577.180
                     460     1 Mar 2021 11:46:18.007     1 Mar 2021 12:01:18.159           900.152
                     461     1 Mar 2021 13:27:49.587     1 Mar 2021 13:37:00.969           551.383
                     462     1 Mar 2021 21:21:44.041     1 Mar 2021 21:29:48.206           484.165
                     463     1 Mar 2021 22:56:48.587     1 Mar 2021 23:11:45.447           896.860
                     464     2 Mar 2021 00:38:44.233     2 Mar 2021 00:49:21.569           637.336
                     465     2 Mar 2021 11:16:35.872     2 Mar 2021 11:31:19.728           883.856
                     466     2 Mar 2021 12:56:48.771     2 Mar 2021 13:09:10.192           741.421
                     467     2 Mar 2021 22:27:28.135     2 Mar 2021 22:41:41.143           853.008
                     468     3 Mar 2021 00:07:19.560     3 Mar 2021 00:20:41.017           801.457
                     469     3 Mar 2021 10:47:15.525     3 Mar 2021 11:00:47.546           812.021
                     470     3 Mar 2021 12:26:22.114     3 Mar 2021 12:40:28.224           846.110
                     471     3 Mar 2021 21:58:42.346     3 Mar 2021 22:11:16.804           754.457
                     472     3 Mar 2021 23:36:43.726     3 Mar 2021 23:51:23.271           879.545
                     473     4 Mar 2021 10:18:30.113     4 Mar 2021 10:29:28.917           658.804
                     474     4 Mar 2021 11:56:16.089     4 Mar 2021 12:11:10.876           894.787
                     475     4 Mar 2021 13:38:25.433     4 Mar 2021 13:45:58.059           452.626
                     476     4 Mar 2021 21:30:45.212     4 Mar 2021 21:40:20.603           575.391
                     477     4 Mar 2021 23:06:42.247     4 Mar 2021 23:21:42.962           900.715
                     478     5 Mar 2021 00:49:30.585     5 Mar 2021 00:58:39.575           548.990
                     479     5 Mar 2021 09:51:23.183     5 Mar 2021 09:56:19.687           296.504
                     480     5 Mar 2021 11:26:27.776     5 Mar 2021 11:41:22.626           894.850
                     481     5 Mar 2021 13:07:03.899     5 Mar 2021 13:18:34.224           690.324
                     482     5 Mar 2021 21:05:13.317     5 Mar 2021 21:07:18.638           125.320
                     483     5 Mar 2021 22:37:11.382     5 Mar 2021 22:51:44.541           873.159
                     484     6 Mar 2021 00:17:40.952     6 Mar 2021 00:30:19.974           759.022
                     485     6 Mar 2021 10:56:59.322     6 Mar 2021 11:11:02.402           843.079
                     486     6 Mar 2021 12:36:28.329     6 Mar 2021 12:50:06.525           818.195
                     487     6 Mar 2021 22:08:13.162     6 Mar 2021 22:21:27.481           794.319
                     488     6 Mar 2021 23:46:51.372     7 Mar 2021 00:01:12.056           860.685
                     489     7 Mar 2021 10:27:59.691     7 Mar 2021 10:40:01.802           722.111
                     490     7 Mar 2021 12:06:16.031     7 Mar 2021 12:21:00.095           884.064
                     491     7 Mar 2021 13:49:21.001     7 Mar 2021 13:54:32.943           311.942
                     492     7 Mar 2021 21:39:56.987     7 Mar 2021 21:50:44.393           647.406
                     493     7 Mar 2021 23:16:39.171     7 Mar 2021 23:31:38.428           899.258
                     494     8 Mar 2021 01:00:34.396     8 Mar 2021 01:07:41.321           426.925
                     495     8 Mar 2021 10:00:01.269     8 Mar 2021 10:07:48.127           466.858
                     496     8 Mar 2021 11:36:21.775     8 Mar 2021 11:51:21.951           900.176
                     497     8 Mar 2021 13:17:23.495     8 Mar 2021 13:27:51.678           628.183
                     498     8 Mar 2021 21:13:00.659     8 Mar 2021 21:19:00.013           359.354
                     499     8 Mar 2021 22:46:58.122     8 Mar 2021 23:01:45.865           887.743
                     500     9 Mar 2021 00:28:08.486     9 Mar 2021 00:39:53.980           705.494
                     501     9 Mar 2021 11:06:46.146     9 Mar 2021 11:21:12.855           866.709
                     502     9 Mar 2021 12:46:36.980     9 Mar 2021 12:59:40.558           783.578
                     503     9 Mar 2021 22:17:48.449     9 Mar 2021 22:31:35.375           826.926
                     504     9 Mar 2021 23:57:03.018    10 Mar 2021 00:10:58.040           835.022
                     505    10 Mar 2021 10:37:35.184    10 Mar 2021 10:50:27.405           772.222
                     506    10 Mar 2021 12:16:17.888    10 Mar 2021 12:30:45.816           867.928
                     507    10 Mar 2021 21:49:16.440    10 Mar 2021 22:01:02.510           706.069
                     508    10 Mar 2021 23:26:39.482    10 Mar 2021 23:41:31.810           892.328
                     509    11 Mar 2021 01:12:22.161    11 Mar 2021 01:16:00.497           218.337
                     510    11 Mar 2021 10:09:08.727    11 Mar 2021 10:18:45.772           577.046
                     511    11 Mar 2021 11:46:17.771    11 Mar 2021 12:01:17.903           900.133
                     512    11 Mar 2021 13:27:49.333    11 Mar 2021 13:37:00.761           551.429
                     513    11 Mar 2021 21:21:43.849    11 Mar 2021 21:29:47.849           484.000
                     514    11 Mar 2021 22:56:48.284    11 Mar 2021 23:11:45.182           896.898
                     515    12 Mar 2021 00:38:43.834    12 Mar 2021 00:49:21.395           637.561
                     516    12 Mar 2021 11:16:35.556    12 Mar 2021 11:31:19.356           883.800
                     517    12 Mar 2021 12:56:48.468    12 Mar 2021 13:09:09.913           741.445
                     518    12 Mar 2021 22:27:27.802    12 Mar 2021 22:41:40.828           853.026
                     519    13 Mar 2021 00:07:19.156    13 Mar 2021 00:20:40.767           801.610
                     520    13 Mar 2021 10:47:15.203    13 Mar 2021 11:00:47.152           811.949
                     521    13 Mar 2021 12:26:21.776    13 Mar 2021 12:40:27.891           846.115
                     522    13 Mar 2021 21:58:42.013    13 Mar 2021 22:11:16.394           754.380
                     523    13 Mar 2021 23:36:43.319    13 Mar 2021 23:51:22.922           879.603
                     524    14 Mar 2021 10:18:29.743    14 Mar 2021 10:29:28.447           658.705
                     525    14 Mar 2021 11:56:15.681    14 Mar 2021 12:11:10.478           894.797
                     526    14 Mar 2021 13:38:24.987    14 Mar 2021 13:45:57.772           452.785
                     527    14 Mar 2021 21:30:44.863    14 Mar 2021 21:40:20.082           575.219
                     528    14 Mar 2021 23:06:41.798    14 Mar 2021 23:21:42.523           900.725
                     529    15 Mar 2021 00:49:30.017    15 Mar 2021 00:58:39.248           549.230
                     530    15 Mar 2021 09:51:22.812    15 Mar 2021 09:56:19.114           296.302
                     531    15 Mar 2021 11:26:27.295    15 Mar 2021 11:41:22.176           894.881
                     532    15 Mar 2021 13:07:03.417    15 Mar 2021 13:18:33.864           690.446
                     533    15 Mar 2021 21:05:13.369    15 Mar 2021 21:07:17.652           124.283
                     534    15 Mar 2021 22:37:10.914    15 Mar 2021 22:51:44.028           873.115
                     535    16 Mar 2021 00:17:40.431    16 Mar 2021 00:30:19.510           759.079
                     536    16 Mar 2021 10:56:58.803    16 Mar 2021 11:11:01.908           843.105
                     537    16 Mar 2021 12:36:27.790    16 Mar 2021 12:50:06.086           818.296
                     538    16 Mar 2021 22:08:12.675    16 Mar 2021 22:21:26.902           794.227
                     539    16 Mar 2021 23:46:50.827    17 Mar 2021 00:01:11.523           860.696
                     540    17 Mar 2021 10:27:59.130    17 Mar 2021 10:40:01.290           722.160
                     541    17 Mar 2021 12:06:15.452    17 Mar 2021 12:20:59.596           884.145
                     542    17 Mar 2021 13:49:20.311    17 Mar 2021 13:54:32.610           312.300
                     543    17 Mar 2021 21:39:56.483    17 Mar 2021 21:50:43.740           647.257
                     544    17 Mar 2021 23:16:38.595    17 Mar 2021 23:31:37.831           899.236
                     545    18 Mar 2021 01:00:33.703    18 Mar 2021 01:07:40.832           427.128
                     546    18 Mar 2021 10:00:00.663    18 Mar 2021 10:07:47.527           466.865
                     547    18 Mar 2021 11:36:21.139    18 Mar 2021 11:51:21.408           900.269
                     548    18 Mar 2021 13:17:22.827    18 Mar 2021 13:27:51.208           628.381
                     549    18 Mar 2021 21:13:00.244    18 Mar 2021 21:18:59.144           358.900
                     550    18 Mar 2021 22:46:57.526    18 Mar 2021 23:01:45.162           887.636
                     551    19 Mar 2021 00:28:07.828    19 Mar 2021 00:39:53.326           705.498
                     552    19 Mar 2021 11:06:45.428    19 Mar 2021 11:21:12.219           866.791
                     553    19 Mar 2021 12:46:36.240    19 Mar 2021 12:59:39.977           783.736
                     554    19 Mar 2021 22:17:47.783    19 Mar 2021 22:31:34.601           826.817
                     555    19 Mar 2021 23:57:02.301    20 Mar 2021 00:10:57.309           835.008
                     556    20 Mar 2021 10:37:34.400    20 Mar 2021 10:50:26.687           772.286
                     557    20 Mar 2021 12:16:17.085    20 Mar 2021 12:30:45.124           868.039
                     558    20 Mar 2021 21:49:15.724    20 Mar 2021 22:01:01.633           705.909
                     559    20 Mar 2021 23:26:38.700    20 Mar 2021 23:41:30.984           892.284
                     560    21 Mar 2021 01:12:21.172    21 Mar 2021 01:15:59.866           218.694
                     561    21 Mar 2021 10:09:07.870    21 Mar 2021 10:18:44.974           577.104
                     562    21 Mar 2021 11:46:16.893    21 Mar 2021 12:01:17.147           900.254
                     563    21 Mar 2021 13:27:48.410    21 Mar 2021 13:37:00.086           551.676
                     564    21 Mar 2021 21:21:43.122    21 Mar 2021 21:29:46.842           483.720
                     565    21 Mar 2021 22:56:47.449    21 Mar 2021 23:11:44.269           896.820
                     566    22 Mar 2021 00:38:42.935    22 Mar 2021 00:49:20.536           637.600
                     567    22 Mar 2021 11:16:34.613    22 Mar 2021 11:31:18.505           883.892
                     568    22 Mar 2021 12:56:47.506    22 Mar 2021 13:09:09.105           741.599
                     569    22 Mar 2021 22:27:26.911    22 Mar 2021 22:41:39.823           852.913
                     570    23 Mar 2021 00:07:18.213    23 Mar 2021 00:20:39.805           801.593
                     571    23 Mar 2021 10:47:14.183    23 Mar 2021 11:00:46.206           812.024
                     572    23 Mar 2021 12:26:20.744    23 Mar 2021 12:40:26.972           846.229
                     573    23 Mar 2021 21:58:41.066    23 Mar 2021 22:11:15.321           754.255
                     574    23 Mar 2021 23:36:42.313    23 Mar 2021 23:51:21.899           879.585
                     575    24 Mar 2021 10:18:28.682    24 Mar 2021 10:29:27.397           658.716
                     576    24 Mar 2021 11:56:14.608    24 Mar 2021 12:11:09.476           894.868
                     577    24 Mar 2021 13:38:23.877    24 Mar 2021 13:45:56.837           452.961
                     578    24 Mar 2021 21:30:43.878    24 Mar 2021 21:40:18.922           575.044
                     579    24 Mar 2021 23:06:40.729    24 Mar 2021 23:21:41.435           900.706
                     580    25 Mar 2021 00:49:28.843    25 Mar 2021 00:58:38.253           549.409
                     581    25 Mar 2021 09:51:21.779    25 Mar 2021 09:56:17.893           296.114
                     582    25 Mar 2021 11:26:26.170    25 Mar 2021 11:41:21.044           894.874
                     583    25 Mar 2021 13:07:02.282    25 Mar 2021 13:18:32.774           690.493
                     584    25 Mar 2021 21:05:12.678    25 Mar 2021 21:07:16.059           123.380
                     585    25 Mar 2021 22:37:09.771    25 Mar 2021 22:51:42.868           873.098
                     586    26 Mar 2021 00:17:39.226    26 Mar 2021 00:30:18.407           759.182
                     587    26 Mar 2021 10:56:57.619    26 Mar 2021 11:11:00.714           843.095
                     588    26 Mar 2021 12:36:26.598    26 Mar 2021 12:50:04.934           818.336
                     589    26 Mar 2021 22:08:11.495    26 Mar 2021 22:21:25.660           794.165
                     590    26 Mar 2021 23:46:49.582    27 Mar 2021 00:01:10.343           860.762
                     591    27 Mar 2021 10:27:57.901    27 Mar 2021 10:39:59.938           722.037
                     592    27 Mar 2021 12:06:14.196    27 Mar 2021 12:20:58.325           884.129
                     593    27 Mar 2021 13:49:19.026    27 Mar 2021 13:54:31.409           312.383
                     594    27 Mar 2021 21:39:55.251    27 Mar 2021 21:50:42.408           647.157
                     595    27 Mar 2021 23:16:37.286    27 Mar 2021 23:31:36.562           899.276
                     596    28 Mar 2021 01:00:32.243    28 Mar 2021 01:07:39.710           427.468
                     597    28 Mar 2021 09:59:59.426    28 Mar 2021 10:07:46.069           466.643
                     598    28 Mar 2021 11:36:19.820    28 Mar 2021 11:51:20.040           900.220
                     599    28 Mar 2021 13:17:21.498    28 Mar 2021 13:27:49.893           628.395
                     600    28 Mar 2021 21:12:58.995    28 Mar 2021 21:18:57.698           358.704
