Sentinel_2A_Case_Study/Environment/Data/SENTINEL-2A_40697_Eclipse_Summary.txt

                                                                                                                                                                               14 Jun 2021 14:53:49
Satellite-Satellite


Penumbra Start Time (UTCG)     Umbra Start Time (UTCG)     Umbra Stop Time (UTCG)     Penumbra Stop Time (UTCG)    Obstruction    Duration (sec)    Max Percent Shadow    Time of Max Shadow (UTCG)
--------------------------    ------------------------    ------------------------    -------------------------    -----------    --------------    ------------------    -------------------------
   1 Dec 2020 11:00:08.273     1 Dec 2020 11:00:18.179     1 Dec 2020 11:33:51.714      1 Dec 2020 11:34:01.689    Earth                2033.416            100.000000      1 Dec 2020 11:00:18.179
   1 Dec 2020 12:40:50.419     1 Dec 2020 12:41:00.329     1 Dec 2020 13:14:33.805      1 Dec 2020 13:14:43.780    Earth                2033.360            100.000000      1 Dec 2020 12:41:00.329
   1 Dec 2020 14:21:32.553     1 Dec 2020 14:21:42.465     1 Dec 2020 14:55:15.904      1 Dec 2020 14:55:25.880    Earth                2033.327            100.000000      1 Dec 2020 14:21:42.465
   1 Dec 2020 16:02:14.701     1 Dec 2020 16:02:24.613     1 Dec 2020 16:35:58.003      1 Dec 2020 16:36:07.979    Earth                2033.279            100.000000      1 Dec 2020 16:02:24.613
   1 Dec 2020 17:42:56.844     1 Dec 2020 17:43:06.758     1 Dec 2020 18:16:40.102      1 Dec 2020 18:16:50.079    Earth                2033.235            100.000000      1 Dec 2020 17:43:06.758
   1 Dec 2020 19:23:38.990     1 Dec 2020 19:23:48.904     1 Dec 2020 19:57:22.201      1 Dec 2020 19:57:32.178    Earth                2033.188            100.000000      1 Dec 2020 19:23:48.904
   1 Dec 2020 21:04:21.134     1 Dec 2020 21:04:31.048     1 Dec 2020 21:38:04.297      1 Dec 2020 21:38:14.275    Earth                2033.142            100.000000      1 Dec 2020 21:04:31.048
   1 Dec 2020 22:45:03.278     1 Dec 2020 22:45:13.193     1 Dec 2020 23:18:46.408      1 Dec 2020 23:18:56.387    Earth                2033.109            100.000000      1 Dec 2020 22:45:13.193
   2 Dec 2020 00:25:45.432     2 Dec 2020 00:25:55.348     2 Dec 2020 00:59:28.504      2 Dec 2020 00:59:38.484    Earth                2033.052            100.000000      2 Dec 2020 00:25:55.348
   2 Dec 2020 02:06:27.575     2 Dec 2020 02:06:37.491     2 Dec 2020 02:40:10.598      2 Dec 2020 02:40:20.579    Earth                2033.004            100.000000      2 Dec 2020 02:06:37.491
   2 Dec 2020 03:47:09.716     2 Dec 2020 03:47:19.633     2 Dec 2020 04:20:52.693      2 Dec 2020 04:21:02.674    Earth                2032.959            100.000000      2 Dec 2020 03:47:19.633
   2 Dec 2020 05:27:51.859     2 Dec 2020 05:28:01.777     2 Dec 2020 06:01:34.788      2 Dec 2020 06:01:44.769    Earth                2032.910            100.000000      2 Dec 2020 05:28:01.777
   2 Dec 2020 07:08:34.000     2 Dec 2020 07:08:43.919     2 Dec 2020 07:42:16.879      2 Dec 2020 07:42:26.864    Earth                2032.863            100.000000      2 Dec 2020 07:08:43.919
   2 Dec 2020 08:49:16.141     2 Dec 2020 08:49:26.060     2 Dec 2020 09:22:58.972      2 Dec 2020 09:23:08.957    Earth                2032.816            100.000000      2 Dec 2020 08:49:26.060
   2 Dec 2020 10:29:58.281     2 Dec 2020 10:30:08.201     2 Dec 2020 11:03:41.044      2 Dec 2020 11:03:51.028    Earth                2032.746            100.000000      2 Dec 2020 10:30:08.201
   2 Dec 2020 12:10:40.395     2 Dec 2020 12:10:50.316     2 Dec 2020 12:44:23.136      2 Dec 2020 12:44:33.122    Earth                2032.727            100.000000      2 Dec 2020 12:10:50.316
   2 Dec 2020 13:51:22.534     2 Dec 2020 13:51:32.455     2 Dec 2020 14:25:05.225      2 Dec 2020 14:25:15.211    Earth                2032.676            100.000000      2 Dec 2020 13:51:32.455
   2 Dec 2020 15:32:04.667     2 Dec 2020 15:32:14.589     2 Dec 2020 16:05:47.315      2 Dec 2020 16:05:57.301    Earth                2032.633            100.000000      2 Dec 2020 15:32:14.589
   2 Dec 2020 17:12:46.805     2 Dec 2020 17:12:56.727     2 Dec 2020 17:46:29.405      2 Dec 2020 17:46:39.391    Earth                2032.586            100.000000      2 Dec 2020 17:12:56.727
   2 Dec 2020 18:53:28.943     2 Dec 2020 18:53:38.866     2 Dec 2020 19:27:11.491      2 Dec 2020 19:27:21.478    Earth                2032.536            100.000000      2 Dec 2020 18:53:38.866
   2 Dec 2020 20:34:11.079     2 Dec 2020 20:34:21.002     2 Dec 2020 21:07:53.579      2 Dec 2020 21:08:03.567    Earth                2032.488            100.000000      2 Dec 2020 20:34:21.002
   2 Dec 2020 22:14:53.214     2 Dec 2020 22:15:03.139     2 Dec 2020 22:48:35.678      2 Dec 2020 22:48:45.665    Earth                2032.451            100.000000      2 Dec 2020 22:15:03.139
   2 Dec 2020 23:55:35.357     2 Dec 2020 23:55:45.282     3 Dec 2020 00:29:17.764      3 Dec 2020 00:29:27.754    Earth                2032.396            100.000000      2 Dec 2020 23:55:45.282
   3 Dec 2020 01:36:17.492     3 Dec 2020 01:36:27.418     3 Dec 2020 02:09:59.847      3 Dec 2020 02:10:09.837    Earth                2032.346            100.000000      3 Dec 2020 01:36:27.418
   3 Dec 2020 03:16:59.625     3 Dec 2020 03:17:09.551     3 Dec 2020 03:50:41.934      3 Dec 2020 03:50:51.925    Earth                2032.300            100.000000      3 Dec 2020 03:17:09.551
   3 Dec 2020 04:57:41.758     3 Dec 2020 04:57:51.685     3 Dec 2020 05:31:24.016      3 Dec 2020 05:31:34.008    Earth                2032.250            100.000000      3 Dec 2020 04:57:51.685
   3 Dec 2020 06:38:23.893     3 Dec 2020 06:38:33.820     3 Dec 2020 07:12:06.099      3 Dec 2020 07:12:16.092    Earth                2032.200            100.000000      3 Dec 2020 06:38:33.820
   3 Dec 2020 08:19:06.022     3 Dec 2020 08:19:15.952     3 Dec 2020 08:52:48.184      3 Dec 2020 08:52:58.178    Earth                2032.156            100.000000      3 Dec 2020 08:19:15.952
   3 Dec 2020 09:59:48.156     3 Dec 2020 09:59:58.083     3 Dec 2020 10:33:30.265      3 Dec 2020 10:33:40.259    Earth                2032.103            100.000000      3 Dec 2020 09:59:58.083
   3 Dec 2020 11:40:30.285     3 Dec 2020 11:40:40.215     3 Dec 2020 12:14:12.339      3 Dec 2020 12:14:22.333    Earth                2032.048            100.000000      3 Dec 2020 11:40:40.215
   3 Dec 2020 13:21:12.404     3 Dec 2020 13:21:22.334     3 Dec 2020 13:54:54.419      3 Dec 2020 13:55:04.414    Earth                2032.011            100.000000      3 Dec 2020 13:21:22.334
   3 Dec 2020 15:01:54.532     3 Dec 2020 15:02:04.463     3 Dec 2020 15:35:36.499      3 Dec 2020 15:35:46.495    Earth                2031.963            100.000000      3 Dec 2020 15:02:04.463
   3 Dec 2020 16:42:36.661     3 Dec 2020 16:42:46.593     3 Dec 2020 17:16:18.578      3 Dec 2020 17:16:28.575    Earth                2031.914            100.000000      3 Dec 2020 16:42:46.593
   3 Dec 2020 18:23:18.789     3 Dec 2020 18:23:28.722     3 Dec 2020 18:57:00.658      3 Dec 2020 18:57:10.655    Earth                2031.866            100.000000      3 Dec 2020 18:23:28.722
   3 Dec 2020 20:04:00.917     3 Dec 2020 20:04:10.850     3 Dec 2020 20:37:42.735      3 Dec 2020 20:37:52.731    Earth                2031.814            100.000000      3 Dec 2020 20:04:10.850
   3 Dec 2020 21:44:43.044     3 Dec 2020 21:44:52.978     3 Dec 2020 22:18:24.812      3 Dec 2020 22:18:34.811    Earth                2031.767            100.000000      3 Dec 2020 21:44:52.978
   3 Dec 2020 23:25:25.170     3 Dec 2020 23:25:35.105     3 Dec 2020 23:59:06.900      3 Dec 2020 23:59:16.902    Earth                2031.731            100.000000      3 Dec 2020 23:25:35.105
   4 Dec 2020 01:06:07.310     4 Dec 2020 01:06:17.245     4 Dec 2020 01:39:48.976      4 Dec 2020 01:39:58.976    Earth                2031.666            100.000000      4 Dec 2020 01:06:17.245
   4 Dec 2020 02:46:49.436     4 Dec 2020 02:46:59.371     4 Dec 2020 03:20:31.053      4 Dec 2020 03:20:41.054    Earth                2031.618            100.000000      4 Dec 2020 02:46:59.371
   4 Dec 2020 04:27:31.560     4 Dec 2020 04:27:41.497     4 Dec 2020 05:01:13.123      4 Dec 2020 05:01:23.124    Earth                2031.564            100.000000      4 Dec 2020 04:27:41.497
   4 Dec 2020 06:08:13.681     4 Dec 2020 06:08:23.618     4 Dec 2020 06:41:55.199      4 Dec 2020 06:42:05.201    Earth                2031.521            100.000000      4 Dec 2020 06:08:23.618
   4 Dec 2020 07:48:55.804     4 Dec 2020 07:49:05.742     4 Dec 2020 08:22:37.269      4 Dec 2020 08:22:47.272    Earth                2031.468            100.000000      4 Dec 2020 07:49:05.742
   4 Dec 2020 09:29:37.927     4 Dec 2020 09:29:47.865     4 Dec 2020 10:03:19.344      4 Dec 2020 10:03:29.346    Earth                2031.419            100.000000      4 Dec 2020 09:29:47.865
   4 Dec 2020 11:10:20.049     4 Dec 2020 11:10:29.988     4 Dec 2020 11:44:01.414      4 Dec 2020 11:44:11.420    Earth                2031.371            100.000000      4 Dec 2020 11:10:29.988
   4 Dec 2020 12:51:02.171     4 Dec 2020 12:51:12.111     4 Dec 2020 13:24:43.486      4 Dec 2020 13:24:53.490    Earth                2031.319            100.000000      4 Dec 2020 12:51:12.111
   4 Dec 2020 14:31:44.292     4 Dec 2020 14:31:54.232     4 Dec 2020 15:05:25.540      4 Dec 2020 15:05:35.546    Earth                2031.254            100.000000      4 Dec 2020 14:31:54.232
   4 Dec 2020 16:12:26.391     4 Dec 2020 16:12:36.332     4 Dec 2020 16:46:07.611      4 Dec 2020 16:46:17.615    Earth                2031.225            100.000000      4 Dec 2020 16:12:36.332
   4 Dec 2020 17:53:08.510     4 Dec 2020 17:53:18.452     4 Dec 2020 18:26:49.679      4 Dec 2020 18:26:59.685    Earth                2031.174            100.000000      4 Dec 2020 17:53:18.452
   4 Dec 2020 19:33:50.629     4 Dec 2020 19:34:00.572     4 Dec 2020 20:07:31.745      4 Dec 2020 20:07:41.753    Earth                2031.124            100.000000      4 Dec 2020 19:34:00.572
   4 Dec 2020 21:14:32.748     4 Dec 2020 21:14:42.691     4 Dec 2020 21:48:13.831      4 Dec 2020 21:48:23.838    Earth                2031.091            100.000000      4 Dec 2020 21:14:42.691
   4 Dec 2020 22:55:14.882     4 Dec 2020 22:55:24.826     4 Dec 2020 23:28:55.898      4 Dec 2020 23:29:05.905    Earth                2031.023            100.000000      4 Dec 2020 22:55:24.826
   5 Dec 2020 00:35:56.999     5 Dec 2020 00:36:06.944     5 Dec 2020 01:09:37.962      5 Dec 2020 01:09:47.972    Earth                2030.973            100.000000      5 Dec 2020 00:36:06.944
   5 Dec 2020 02:16:39.116     5 Dec 2020 02:16:49.061     5 Dec 2020 02:50:20.029      5 Dec 2020 02:50:30.039    Earth                2030.923            100.000000      5 Dec 2020 02:16:49.061
   5 Dec 2020 03:57:21.232     5 Dec 2020 03:57:31.180     5 Dec 2020 04:31:02.091      5 Dec 2020 04:31:12.103    Earth                2030.871            100.000000      5 Dec 2020 03:57:31.180
   5 Dec 2020 05:38:03.347     5 Dec 2020 05:38:13.296     5 Dec 2020 06:11:44.157      5 Dec 2020 06:11:54.167    Earth                2030.821            100.000000      5 Dec 2020 05:38:13.296
   5 Dec 2020 07:18:45.463     5 Dec 2020 07:18:55.412     5 Dec 2020 07:52:26.218      5 Dec 2020 07:52:36.231    Earth                2030.768            100.000000      5 Dec 2020 07:18:55.412
   5 Dec 2020 08:59:27.577     5 Dec 2020 08:59:37.525     5 Dec 2020 09:33:08.260      5 Dec 2020 09:33:18.274    Earth                2030.697            100.000000      5 Dec 2020 08:59:37.525
   5 Dec 2020 10:40:09.665     5 Dec 2020 10:40:19.614     5 Dec 2020 11:13:50.321      5 Dec 2020 11:14:00.336    Earth                2030.671            100.000000      5 Dec 2020 10:40:19.614
   5 Dec 2020 12:20:51.778     5 Dec 2020 12:21:01.727     5 Dec 2020 12:54:32.381      5 Dec 2020 12:54:42.397    Earth                2030.619            100.000000      5 Dec 2020 12:21:01.727
   5 Dec 2020 14:01:33.890     5 Dec 2020 14:01:43.840     5 Dec 2020 14:35:14.441      5 Dec 2020 14:35:24.457    Earth                2030.568            100.000000      5 Dec 2020 14:01:43.840
   5 Dec 2020 15:42:16.001     5 Dec 2020 15:42:25.952     5 Dec 2020 16:15:56.494      5 Dec 2020 16:16:06.511    Earth                2030.510            100.000000      5 Dec 2020 15:42:25.952
   5 Dec 2020 17:22:58.101     5 Dec 2020 17:23:08.053     5 Dec 2020 17:56:38.552      5 Dec 2020 17:56:48.569    Earth                2030.469            100.000000      5 Dec 2020 17:23:08.053
   5 Dec 2020 19:03:40.211     5 Dec 2020 19:03:50.163     5 Dec 2020 19:37:20.607      5 Dec 2020 19:37:30.627    Earth                2030.417            100.000000      5 Dec 2020 19:03:50.163
   5 Dec 2020 20:44:22.320     5 Dec 2020 20:44:32.273     5 Dec 2020 21:18:02.679      5 Dec 2020 21:18:12.698    Earth                2030.378            100.000000      5 Dec 2020 20:44:32.273
   5 Dec 2020 22:25:04.443     5 Dec 2020 22:25:14.396     5 Dec 2020 22:58:44.733      5 Dec 2020 22:58:54.753    Earth                2030.310            100.000000      5 Dec 2020 22:25:14.396
   6 Dec 2020 00:05:46.551     6 Dec 2020 00:05:56.505     6 Dec 2020 00:39:26.791      6 Dec 2020 00:39:36.809    Earth                2030.259            100.000000      6 Dec 2020 00:05:56.505
   6 Dec 2020 01:46:28.658     6 Dec 2020 01:46:38.613     6 Dec 2020 02:20:08.841      6 Dec 2020 02:20:18.862    Earth                2030.204            100.000000      6 Dec 2020 01:46:38.613
   6 Dec 2020 03:27:10.757     6 Dec 2020 03:27:20.713     6 Dec 2020 04:00:50.893      6 Dec 2020 04:01:00.915    Earth                2030.157            100.000000      6 Dec 2020 03:27:20.713
   6 Dec 2020 05:07:52.863     6 Dec 2020 05:08:02.820     6 Dec 2020 05:41:32.937      6 Dec 2020 05:41:42.962    Earth                2030.099            100.000000      6 Dec 2020 05:08:02.820
   6 Dec 2020 06:48:34.958     6 Dec 2020 06:48:44.915     6 Dec 2020 07:22:14.990      6 Dec 2020 07:22:25.014    Earth                2030.056            100.000000      6 Dec 2020 06:48:44.915
   6 Dec 2020 08:29:17.063     6 Dec 2020 08:29:27.021     6 Dec 2020 09:02:57.041      6 Dec 2020 09:03:07.066    Earth                2030.003            100.000000      6 Dec 2020 08:29:27.021
   6 Dec 2020 10:09:59.167     6 Dec 2020 10:10:09.125     6 Dec 2020 10:43:39.093      6 Dec 2020 10:43:49.118    Earth                2029.951            100.000000      6 Dec 2020 10:10:09.125
   6 Dec 2020 11:50:41.267     6 Dec 2020 11:50:51.226     6 Dec 2020 12:24:21.141      6 Dec 2020 12:24:31.169    Earth                2029.902            100.000000      6 Dec 2020 11:50:51.226
   6 Dec 2020 13:31:23.369     6 Dec 2020 13:31:33.329     6 Dec 2020 14:05:03.190      6 Dec 2020 14:05:13.217    Earth                2029.848            100.000000      6 Dec 2020 13:31:33.329
   6 Dec 2020 15:12:05.468     6 Dec 2020 15:12:15.428     6 Dec 2020 15:45:45.239      6 Dec 2020 15:45:55.264    Earth                2029.797            100.000000      6 Dec 2020 15:12:15.428
   6 Dec 2020 16:52:47.569     6 Dec 2020 16:52:57.531     6 Dec 2020 17:26:27.291      6 Dec 2020 17:26:37.319    Earth                2029.750            100.000000      6 Dec 2020 16:52:57.531
   6 Dec 2020 18:33:29.672     6 Dec 2020 18:33:39.634     6 Dec 2020 19:07:09.338      6 Dec 2020 19:07:19.367    Earth                2029.696            100.000000      6 Dec 2020 18:33:39.634
   6 Dec 2020 20:14:11.772     6 Dec 2020 20:14:21.735     6 Dec 2020 20:47:51.385      6 Dec 2020 20:48:01.413    Earth                2029.641            100.000000      6 Dec 2020 20:14:21.735
   6 Dec 2020 21:54:53.872     6 Dec 2020 21:55:03.835     6 Dec 2020 22:28:33.441      6 Dec 2020 22:28:43.471    Earth                2029.600            100.000000      6 Dec 2020 21:55:03.835
   6 Dec 2020 23:35:35.981     6 Dec 2020 23:35:45.945     7 Dec 2020 00:09:15.484      7 Dec 2020 00:09:25.517    Earth                2029.536            100.000000      6 Dec 2020 23:35:45.945
   7 Dec 2020 01:16:18.080     7 Dec 2020 01:16:28.046     7 Dec 2020 01:49:57.528      7 Dec 2020 01:50:07.561    Earth                2029.481            100.000000      7 Dec 2020 01:16:28.046
   7 Dec 2020 02:57:00.179     7 Dec 2020 02:57:10.145     7 Dec 2020 03:30:39.578      7 Dec 2020 03:30:49.611    Earth                2029.432            100.000000      7 Dec 2020 02:57:10.145
   7 Dec 2020 04:37:42.281     7 Dec 2020 04:37:52.246     7 Dec 2020 05:11:21.618      7 Dec 2020 05:11:31.651    Earth                2029.370            100.000000      7 Dec 2020 04:37:52.246
   7 Dec 2020 06:18:24.373     7 Dec 2020 06:18:34.340     7 Dec 2020 06:52:03.660      7 Dec 2020 06:52:13.694    Earth                2029.321            100.000000      7 Dec 2020 06:18:34.340
   7 Dec 2020 07:59:06.469     7 Dec 2020 07:59:16.437     7 Dec 2020 08:32:45.702      7 Dec 2020 08:32:55.737    Earth                2029.268            100.000000      7 Dec 2020 07:59:16.437
   7 Dec 2020 09:39:48.565     7 Dec 2020 09:39:58.533     7 Dec 2020 10:13:27.739      7 Dec 2020 10:13:37.775    Earth                2029.210            100.000000      7 Dec 2020 09:39:58.533
   7 Dec 2020 11:20:30.652     7 Dec 2020 11:20:40.621     7 Dec 2020 11:54:09.779      7 Dec 2020 11:54:19.815    Earth                2029.164            100.000000      7 Dec 2020 11:20:40.621
   7 Dec 2020 13:01:12.746     7 Dec 2020 13:01:22.716     7 Dec 2020 13:34:51.814      7 Dec 2020 13:35:01.852    Earth                2029.106            100.000000      7 Dec 2020 13:01:22.716
   7 Dec 2020 14:41:54.831     7 Dec 2020 14:42:04.802     7 Dec 2020 15:15:33.853      7 Dec 2020 15:15:43.891    Earth                2029.060            100.000000      7 Dec 2020 14:42:04.802
   7 Dec 2020 16:22:36.924     7 Dec 2020 16:22:46.895     7 Dec 2020 16:56:15.893      7 Dec 2020 16:56:25.930    Earth                2029.006            100.000000      7 Dec 2020 16:22:46.895
   7 Dec 2020 18:03:19.017     7 Dec 2020 18:03:28.989     7 Dec 2020 18:36:57.930      7 Dec 2020 18:37:07.970    Earth                2028.953            100.000000      7 Dec 2020 18:03:28.989
   7 Dec 2020 19:44:01.109     7 Dec 2020 19:44:11.082     7 Dec 2020 20:17:39.965      7 Dec 2020 20:17:50.007    Earth                2028.899            100.000000      7 Dec 2020 19:44:11.082
   7 Dec 2020 21:24:43.200     7 Dec 2020 21:24:53.174     7 Dec 2020 21:58:22.003      7 Dec 2020 21:58:32.042    Earth                2028.842            100.000000      7 Dec 2020 21:24:53.174
   7 Dec 2020 23:05:25.290     7 Dec 2020 23:05:35.265     7 Dec 2020 23:39:04.035      7 Dec 2020 23:39:14.077    Earth                2028.787            100.000000      7 Dec 2020 23:05:35.265
   8 Dec 2020 00:46:07.380     8 Dec 2020 00:46:17.355     8 Dec 2020 01:19:46.070      8 Dec 2020 01:19:56.115    Earth                2028.735            100.000000      8 Dec 2020 00:46:17.355
   8 Dec 2020 02:26:49.469     8 Dec 2020 02:26:59.445     8 Dec 2020 03:00:28.114      8 Dec 2020 03:00:38.158    Earth                2028.689            100.000000      8 Dec 2020 02:26:59.445
   8 Dec 2020 04:07:31.569     8 Dec 2020 04:07:41.546     8 Dec 2020 04:41:10.148      8 Dec 2020 04:41:20.192    Earth                2028.623            100.000000      8 Dec 2020 04:07:41.546
   8 Dec 2020 05:48:13.657     8 Dec 2020 05:48:23.634     8 Dec 2020 06:21:52.163      8 Dec 2020 06:22:02.208    Earth                2028.551            100.000000      8 Dec 2020 05:48:23.634
   8 Dec 2020 07:28:55.723     8 Dec 2020 07:29:05.701     8 Dec 2020 08:02:34.192      8 Dec 2020 08:02:44.240    Earth                2028.517            100.000000      8 Dec 2020 07:29:05.701
   8 Dec 2020 09:09:37.809     8 Dec 2020 09:09:47.788     8 Dec 2020 09:43:16.223      8 Dec 2020 09:43:26.268    Earth                2028.458            100.000000      8 Dec 2020 09:09:47.788
   8 Dec 2020 10:50:19.892     8 Dec 2020 10:50:29.872     8 Dec 2020 11:23:58.253      8 Dec 2020 11:24:08.298    Earth                2028.406            100.000000      8 Dec 2020 10:50:29.872
   8 Dec 2020 12:31:01.977     8 Dec 2020 12:31:11.958     8 Dec 2020 13:04:40.276      8 Dec 2020 13:04:50.324    Earth                2028.346            100.000000      8 Dec 2020 12:31:11.958
   8 Dec 2020 14:11:44.057     8 Dec 2020 14:11:54.038     8 Dec 2020 14:45:22.304      8 Dec 2020 14:45:32.354    Earth                2028.298            100.000000      8 Dec 2020 14:11:54.038
   8 Dec 2020 15:52:26.140     8 Dec 2020 15:52:36.122     8 Dec 2020 16:26:04.331      8 Dec 2020 16:26:14.380    Earth                2028.240            100.000000      8 Dec 2020 15:52:36.122
   8 Dec 2020 17:33:08.223     8 Dec 2020 17:33:18.206     8 Dec 2020 18:06:46.357      8 Dec 2020 18:06:56.408    Earth                2028.184            100.000000      8 Dec 2020 17:33:18.206
   8 Dec 2020 19:13:50.306     8 Dec 2020 19:14:00.289     8 Dec 2020 19:47:28.383      8 Dec 2020 19:47:38.434    Earth                2028.129            100.000000      8 Dec 2020 19:14:00.289
   8 Dec 2020 20:54:32.387     8 Dec 2020 20:54:42.371     8 Dec 2020 21:28:10.410      8 Dec 2020 21:28:20.460    Earth                2028.073            100.000000      8 Dec 2020 20:54:42.371
   8 Dec 2020 22:35:14.470     8 Dec 2020 22:35:24.452     8 Dec 2020 23:08:52.432      8 Dec 2020 23:09:02.485    Earth                2028.015            100.000000      8 Dec 2020 22:35:24.452
   9 Dec 2020 00:15:56.548     9 Dec 2020 00:16:06.535     9 Dec 2020 00:49:34.458      9 Dec 2020 00:49:44.510    Earth                2027.962            100.000000      9 Dec 2020 00:16:06.535
   9 Dec 2020 01:56:38.628     9 Dec 2020 01:56:48.614     9 Dec 2020 02:30:16.479      9 Dec 2020 02:30:26.533    Earth                2027.905            100.000000      9 Dec 2020 01:56:48.614
   9 Dec 2020 03:37:20.707     9 Dec 2020 03:37:30.694     9 Dec 2020 04:10:58.501      9 Dec 2020 04:11:08.556    Earth                2027.849            100.000000      9 Dec 2020 03:37:30.694
   9 Dec 2020 05:18:02.786     9 Dec 2020 05:18:12.773     9 Dec 2020 05:51:40.523      9 Dec 2020 05:51:50.578    Earth                2027.793            100.000000      9 Dec 2020 05:18:12.773
   9 Dec 2020 06:58:44.863     9 Dec 2020 06:58:54.852     9 Dec 2020 07:32:22.543      9 Dec 2020 07:32:32.600    Earth                2027.737            100.000000      9 Dec 2020 06:58:54.852
   9 Dec 2020 08:39:26.940     9 Dec 2020 08:39:36.929     9 Dec 2020 09:13:04.566      9 Dec 2020 09:13:14.624    Earth                2027.684            100.000000      9 Dec 2020 08:39:36.929
   9 Dec 2020 10:20:09.016     9 Dec 2020 10:20:19.006     9 Dec 2020 10:53:46.587      9 Dec 2020 10:53:56.645    Earth                2027.629            100.000000      9 Dec 2020 10:20:19.006
   9 Dec 2020 12:00:51.092     9 Dec 2020 12:01:01.083     9 Dec 2020 12:34:28.605      9 Dec 2020 12:34:38.664    Earth                2027.572            100.000000      9 Dec 2020 12:01:01.083
   9 Dec 2020 13:41:33.167     9 Dec 2020 13:41:43.158     9 Dec 2020 14:15:10.619      9 Dec 2020 14:15:20.679    Earth                2027.512            100.000000      9 Dec 2020 13:41:43.158
   9 Dec 2020 15:22:15.238     9 Dec 2020 15:22:25.230     9 Dec 2020 15:55:52.636      9 Dec 2020 15:56:02.697    Earth                2027.459            100.000000      9 Dec 2020 15:22:25.230
   9 Dec 2020 17:02:57.312     9 Dec 2020 17:03:07.304     9 Dec 2020 17:36:34.656      9 Dec 2020 17:36:44.716    Earth                2027.404            100.000000      9 Dec 2020 17:03:07.304
   9 Dec 2020 18:43:39.385     9 Dec 2020 18:43:49.379     9 Dec 2020 19:17:16.672      9 Dec 2020 19:17:26.732    Earth                2027.346            100.000000      9 Dec 2020 18:43:49.379
   9 Dec 2020 20:24:21.458     9 Dec 2020 20:24:31.452     9 Dec 2020 20:57:58.687      9 Dec 2020 20:58:08.747    Earth                2027.289            100.000000      9 Dec 2020 20:24:31.452
   9 Dec 2020 22:05:03.530     9 Dec 2020 22:05:13.525     9 Dec 2020 22:38:40.712      9 Dec 2020 22:38:50.777    Earth                2027.248            100.000000      9 Dec 2020 22:05:13.525
   9 Dec 2020 23:45:45.615     9 Dec 2020 23:45:55.612    10 Dec 2020 00:19:22.725     10 Dec 2020 00:19:32.792    Earth                2027.177            100.000000      9 Dec 2020 23:45:55.612
  10 Dec 2020 01:26:27.686    10 Dec 2020 01:26:37.683    10 Dec 2020 02:00:04.740     10 Dec 2020 02:00:14.803    Earth                2027.118            100.000000     10 Dec 2020 01:26:37.683
  10 Dec 2020 03:07:09.756    10 Dec 2020 03:07:19.754    10 Dec 2020 03:40:46.750     10 Dec 2020 03:40:56.816    Earth                2027.061            100.000000     10 Dec 2020 03:07:19.754
  10 Dec 2020 04:47:51.822    10 Dec 2020 04:48:01.820    10 Dec 2020 05:21:28.763     10 Dec 2020 05:21:38.830    Earth                2027.008            100.000000     10 Dec 2020 04:48:01.820
  10 Dec 2020 06:28:33.891    10 Dec 2020 06:28:43.890    10 Dec 2020 07:02:10.771     10 Dec 2020 07:02:20.838    Earth                2026.948            100.000000     10 Dec 2020 06:28:43.890
  10 Dec 2020 08:09:15.954    10 Dec 2020 08:09:25.954    10 Dec 2020 08:42:52.779     10 Dec 2020 08:43:02.847    Earth                2026.893            100.000000     10 Dec 2020 08:09:25.954
  10 Dec 2020 09:49:58.022    10 Dec 2020 09:50:08.022    10 Dec 2020 10:23:34.787     10 Dec 2020 10:23:44.856    Earth                2026.834            100.000000     10 Dec 2020 09:50:08.022
  10 Dec 2020 11:30:40.087    10 Dec 2020 11:30:50.088    10 Dec 2020 12:04:16.797     10 Dec 2020 12:04:26.867    Earth                2026.780            100.000000     10 Dec 2020 11:30:50.088
  10 Dec 2020 13:11:22.153    10 Dec 2020 13:11:32.155    10 Dec 2020 13:44:58.799     10 Dec 2020 13:45:08.872    Earth                2026.719            100.000000     10 Dec 2020 13:11:32.155
  10 Dec 2020 14:52:04.213    10 Dec 2020 14:52:14.215    10 Dec 2020 15:25:40.806     10 Dec 2020 15:25:50.879    Earth                2026.667            100.000000     10 Dec 2020 14:52:14.215
  10 Dec 2020 16:32:46.277    10 Dec 2020 16:32:56.281    10 Dec 2020 17:06:22.816     10 Dec 2020 17:06:32.886    Earth                2026.609            100.000000     10 Dec 2020 16:32:56.281
  10 Dec 2020 18:13:28.343    10 Dec 2020 18:13:38.347    10 Dec 2020 18:47:04.819     10 Dec 2020 18:47:14.892    Earth                2026.549            100.000000     10 Dec 2020 18:13:38.347
  10 Dec 2020 19:54:10.408    10 Dec 2020 19:54:20.413    10 Dec 2020 20:27:46.824     10 Dec 2020 20:27:56.896    Earth                2026.488            100.000000     10 Dec 2020 19:54:20.413
  10 Dec 2020 21:34:52.470    10 Dec 2020 21:35:02.476    10 Dec 2020 22:08:28.851     10 Dec 2020 22:08:38.925    Earth                2026.454            100.000000     10 Dec 2020 21:35:02.476
  10 Dec 2020 23:15:34.557    10 Dec 2020 23:15:44.562    10 Dec 2020 23:49:10.853     10 Dec 2020 23:49:20.929    Earth                2026.372            100.000000     10 Dec 2020 23:15:44.562
  11 Dec 2020 00:56:16.617    11 Dec 2020 00:56:26.624    11 Dec 2020 01:29:52.856     11 Dec 2020 01:30:02.932    Earth                2026.316            100.000000     11 Dec 2020 00:56:26.624
  11 Dec 2020 02:36:58.678    11 Dec 2020 02:37:08.686    11 Dec 2020 03:10:34.880     11 Dec 2020 03:10:44.957    Earth                2026.279            100.000000     11 Dec 2020 02:37:08.686
  11 Dec 2020 04:17:40.759    11 Dec 2020 04:17:50.768    11 Dec 2020 04:51:16.882     11 Dec 2020 04:51:26.960    Earth                2026.201            100.000000     11 Dec 2020 04:17:50.768
  11 Dec 2020 05:58:22.820    11 Dec 2020 05:58:32.829    11 Dec 2020 06:31:58.915     11 Dec 2020 06:32:08.993    Earth                2026.173            100.000000     11 Dec 2020 05:58:32.829
  11 Dec 2020 07:39:04.912    11 Dec 2020 07:39:14.922    11 Dec 2020 08:12:40.917     11 Dec 2020 08:12:50.996    Earth                2026.084            100.000000     11 Dec 2020 07:39:14.922
  11 Dec 2020 09:19:46.972    11 Dec 2020 09:19:56.983    11 Dec 2020 09:53:22.917     11 Dec 2020 09:53:32.997    Earth                2026.025            100.000000     11 Dec 2020 09:19:56.983
  11 Dec 2020 11:00:29.031    11 Dec 2020 11:00:39.043    11 Dec 2020 11:34:04.922     11 Dec 2020 11:34:15.006    Earth                2025.975            100.000000     11 Dec 2020 11:00:39.043
  11 Dec 2020 12:41:11.097    11 Dec 2020 12:41:21.109    11 Dec 2020 13:14:46.925     11 Dec 2020 13:14:57.009    Earth                2025.912            100.000000     11 Dec 2020 12:41:21.109
  11 Dec 2020 14:21:53.158    11 Dec 2020 14:22:03.172    11 Dec 2020 14:55:28.925     11 Dec 2020 14:55:39.008    Earth                2025.849            100.000000     11 Dec 2020 14:22:03.172
  11 Dec 2020 16:02:35.216    11 Dec 2020 16:02:45.230    11 Dec 2020 16:36:10.923     11 Dec 2020 16:36:21.006    Earth                2025.790            100.000000     11 Dec 2020 16:02:45.230
  11 Dec 2020 17:43:17.273    11 Dec 2020 17:43:27.288    11 Dec 2020 18:16:52.936     11 Dec 2020 18:17:03.023    Earth                2025.750            100.000000     11 Dec 2020 17:43:27.288
  11 Dec 2020 19:23:59.348    11 Dec 2020 19:24:09.365    11 Dec 2020 19:57:34.934     11 Dec 2020 19:57:45.021    Earth                2025.673            100.000000     11 Dec 2020 19:24:09.365
  11 Dec 2020 21:04:41.404    11 Dec 2020 21:04:51.422    11 Dec 2020 21:38:16.946     11 Dec 2020 21:38:27.029    Earth                2025.625            100.000000     11 Dec 2020 21:04:51.422
  11 Dec 2020 22:45:23.472    11 Dec 2020 22:45:33.490    11 Dec 2020 23:18:58.942     11 Dec 2020 23:19:09.027    Earth                2025.554            100.000000     11 Dec 2020 22:45:33.490
  12 Dec 2020 00:26:05.527    12 Dec 2020 00:26:15.546    12 Dec 2020 00:59:40.935     12 Dec 2020 00:59:51.022    Earth                2025.495            100.000000     12 Dec 2020 00:26:15.546
  12 Dec 2020 02:06:47.582    12 Dec 2020 02:06:57.602    12 Dec 2020 02:40:22.962     12 Dec 2020 02:40:33.052    Earth                2025.470            100.000000     12 Dec 2020 02:06:57.602
  12 Dec 2020 03:47:29.669    12 Dec 2020 03:47:39.689    12 Dec 2020 04:21:04.956     12 Dec 2020 04:21:15.047    Earth                2025.378            100.000000     12 Dec 2020 03:47:39.689
  12 Dec 2020 05:28:11.723    12 Dec 2020 05:28:21.744    12 Dec 2020 06:01:46.972     12 Dec 2020 06:01:57.062    Earth                2025.338            100.000000     12 Dec 2020 05:28:21.744
  12 Dec 2020 07:08:53.801    12 Dec 2020 07:09:03.822    12 Dec 2020 07:42:28.966     12 Dec 2020 07:42:39.058    Earth                2025.257            100.000000     12 Dec 2020 07:09:03.822
  12 Dec 2020 08:49:35.855    12 Dec 2020 08:49:45.876    12 Dec 2020 09:23:10.958     12 Dec 2020 09:23:21.050    Earth                2025.195            100.000000     12 Dec 2020 08:49:45.876
  12 Dec 2020 10:30:17.907    12 Dec 2020 10:30:27.930    12 Dec 2020 11:03:53.000     12 Dec 2020 11:04:03.092    Earth                2025.185            100.000000     12 Dec 2020 10:30:27.930
  12 Dec 2020 12:11:00.009    12 Dec 2020 12:11:10.033    12 Dec 2020 12:44:34.992     12 Dec 2020 12:44:45.085    Earth                2025.076            100.000000     12 Dec 2020 12:11:10.033
  12 Dec 2020 13:51:42.062    12 Dec 2020 13:51:52.086    12 Dec 2020 14:25:16.984     12 Dec 2020 14:25:27.078    Earth                2025.016            100.000000     12 Dec 2020 13:51:52.086
  12 Dec 2020 15:32:24.114    12 Dec 2020 15:32:34.139    12 Dec 2020 16:05:58.975     12 Dec 2020 16:06:09.071    Earth                2024.958            100.000000     12 Dec 2020 15:32:34.139
  12 Dec 2020 17:13:06.165    12 Dec 2020 17:13:16.190    12 Dec 2020 17:46:40.967     12 Dec 2020 17:46:51.062    Earth                2024.897            100.000000     12 Dec 2020 17:13:16.190
  12 Dec 2020 18:53:48.217    12 Dec 2020 18:53:58.241    12 Dec 2020 19:27:23.093     12 Dec 2020 19:27:33.189    Earth                2024.972            100.000000     12 Dec 2020 18:53:58.241
  12 Dec 2020 20:34:30.412    12 Dec 2020 20:34:40.438    12 Dec 2020 21:08:05.084     12 Dec 2020 21:08:15.181    Earth                2024.768            100.000000     12 Dec 2020 20:34:40.438
  12 Dec 2020 22:15:12.463    12 Dec 2020 22:15:22.491    12 Dec 2020 22:48:47.204     12 Dec 2020 22:48:57.303    Earth                2024.839            100.000000     12 Dec 2020 22:15:22.491
  12 Dec 2020 23:55:54.643    12 Dec 2020 23:56:04.672    13 Dec 2020 00:29:29.198     13 Dec 2020 00:29:39.297    Earth                2024.654            100.000000     12 Dec 2020 23:56:04.672
  13 Dec 2020 01:36:36.698    13 Dec 2020 01:36:46.728    13 Dec 2020 02:10:11.397     13 Dec 2020 02:10:21.497    Earth                2024.799            100.000000     13 Dec 2020 01:36:46.728
  13 Dec 2020 03:17:18.949    13 Dec 2020 03:17:28.980    13 Dec 2020 03:50:53.395     13 Dec 2020 03:51:03.495    Earth                2024.546            100.000000     13 Dec 2020 03:17:28.980
  13 Dec 2020 04:58:01.007    13 Dec 2020 04:58:11.039    13 Dec 2020 05:31:35.392     13 Dec 2020 05:31:45.494    Earth                2024.486            100.000000     13 Dec 2020 04:58:11.039
  13 Dec 2020 06:38:43.065    13 Dec 2020 06:38:53.097    13 Dec 2020 07:12:17.702     13 Dec 2020 07:12:27.806    Earth                2024.742            100.000000     13 Dec 2020 06:38:53.097
  13 Dec 2020 08:19:25.431    13 Dec 2020 08:19:35.464    13 Dec 2020 08:52:59.707     13 Dec 2020 08:53:09.810    Earth                2024.380            100.000000     13 Dec 2020 08:19:35.464
  13 Dec 2020 10:00:07.495    13 Dec 2020 10:00:17.529    13 Dec 2020 10:33:41.710     13 Dec 2020 10:33:51.814    Earth                2024.319            100.000000     13 Dec 2020 10:00:17.529
  13 Dec 2020 11:40:49.559    13 Dec 2020 11:40:59.593    13 Dec 2020 12:14:23.774     13 Dec 2020 12:14:33.878    Earth                2024.320            100.000000     13 Dec 2020 11:40:59.593
  13 Dec 2020 13:21:31.689    13 Dec 2020 13:21:41.724    13 Dec 2020 13:55:05.775     13 Dec 2020 13:55:15.880    Earth                2024.192            100.000000     13 Dec 2020 13:21:41.724
  13 Dec 2020 15:02:13.752    13 Dec 2020 15:02:23.788    13 Dec 2020 15:35:47.780     13 Dec 2020 15:35:57.884    Earth                2024.132            100.000000     13 Dec 2020 15:02:23.788
  13 Dec 2020 16:42:55.816    13 Dec 2020 16:43:05.853    13 Dec 2020 17:16:29.780     13 Dec 2020 17:16:39.887    Earth                2024.071            100.000000     13 Dec 2020 16:43:05.853
  13 Dec 2020 18:23:37.880    13 Dec 2020 18:23:47.918    13 Dec 2020 18:57:11.885     13 Dec 2020 18:57:21.990    Earth                2024.110            100.000000     13 Dec 2020 18:23:47.918
  13 Dec 2020 20:04:20.036    13 Dec 2020 20:04:30.075    13 Dec 2020 20:37:53.886     13 Dec 2020 20:38:03.996    Earth                2023.960            100.000000     13 Dec 2020 20:04:30.075
  13 Dec 2020 21:45:02.102    13 Dec 2020 21:45:12.141    13 Dec 2020 22:18:35.889     13 Dec 2020 22:18:46.002    Earth                2023.901            100.000000     13 Dec 2020 21:45:12.141
  13 Dec 2020 23:25:44.167    13 Dec 2020 23:25:54.208    13 Dec 2020 23:59:17.893     13 Dec 2020 23:59:28.006    Earth                2023.839            100.000000     13 Dec 2020 23:25:54.208
  14 Dec 2020 01:06:26.232    14 Dec 2020 01:06:36.274    14 Dec 2020 01:39:59.898     14 Dec 2020 01:40:10.007    Earth                2023.775            100.000000     14 Dec 2020 01:06:36.274
  14 Dec 2020 02:47:08.297    14 Dec 2020 02:47:18.339    14 Dec 2020 03:20:42.124     14 Dec 2020 03:20:52.236    Earth                2023.940            100.000000     14 Dec 2020 02:47:18.339
  14 Dec 2020 04:27:50.578    14 Dec 2020 04:28:00.621    14 Dec 2020 05:01:24.132     14 Dec 2020 05:01:34.245    Earth                2023.668            100.000000     14 Dec 2020 04:28:00.621
  14 Dec 2020 06:08:32.648    14 Dec 2020 06:08:42.692    14 Dec 2020 06:42:06.139     14 Dec 2020 06:42:16.254    Earth                2023.606            100.000000     14 Dec 2020 06:08:42.692
  14 Dec 2020 07:49:14.718    14 Dec 2020 07:49:24.763    14 Dec 2020 08:22:48.150     14 Dec 2020 08:22:58.262    Earth                2023.544            100.000000     14 Dec 2020 07:49:24.763
  14 Dec 2020 09:29:56.788    14 Dec 2020 09:30:06.833    14 Dec 2020 10:03:30.153     14 Dec 2020 10:03:40.273    Earth                2023.485            100.000000     14 Dec 2020 09:30:06.833
  14 Dec 2020 11:10:38.857    14 Dec 2020 11:10:48.903    14 Dec 2020 11:44:12.290     14 Dec 2020 11:44:22.406    Earth                2023.549            100.000000     14 Dec 2020 11:10:48.903
  14 Dec 2020 12:51:21.078    14 Dec 2020 12:51:31.125    14 Dec 2020 13:24:54.300     14 Dec 2020 13:25:04.420    Earth                2023.342            100.000000     14 Dec 2020 12:51:31.125
  14 Dec 2020 14:32:03.151    14 Dec 2020 14:32:13.199    14 Dec 2020 15:05:36.310     14 Dec 2020 15:05:46.430    Earth                2023.279            100.000000     14 Dec 2020 14:32:13.199
  14 Dec 2020 15:34:45.341                         N/A                         N/A     14 Dec 2020 15:51:47.017    Moon                 1021.676             82.068766     14 Dec 2020 15:42:37.322
  14 Dec 2020 16:12:45.226    14 Dec 2020 16:12:55.274    14 Dec 2020 16:46:18.318     14 Dec 2020 16:46:28.440    Earth                2023.215            100.000000     14 Dec 2020 16:12:55.274
  14 Dec 2020 16:18:19.356                         N/A                         N/A     14 Dec 2020 16:31:29.104    Moon                  789.748             22.526722     14 Dec 2020 16:25:19.817
  14 Dec 2020 17:53:27.295    14 Dec 2020 17:53:37.344    14 Dec 2020 18:27:00.327     14 Dec 2020 18:27:10.447    Earth                2023.152            100.000000     14 Dec 2020 17:53:37.344
  14 Dec 2020 19:34:09.367    14 Dec 2020 19:34:19.417    14 Dec 2020 20:07:42.405     14 Dec 2020 20:07:52.526    Earth                2023.159            100.000000     14 Dec 2020 19:34:19.417
  14 Dec 2020 21:14:51.499    14 Dec 2020 21:15:01.551    14 Dec 2020 21:48:24.416     14 Dec 2020 21:48:34.537    Earth                2023.038            100.000000     14 Dec 2020 21:15:01.551
  14 Dec 2020 22:55:33.573    14 Dec 2020 22:55:43.625    14 Dec 2020 23:29:06.426     14 Dec 2020 23:29:16.549    Earth                2022.976            100.000000     14 Dec 2020 22:55:43.625
  15 Dec 2020 00:36:15.646    15 Dec 2020 00:36:25.699    15 Dec 2020 01:09:48.436     15 Dec 2020 01:09:58.559    Earth                2022.913            100.000000     15 Dec 2020 00:36:25.699
  15 Dec 2020 02:16:57.719    15 Dec 2020 02:17:07.773    15 Dec 2020 02:50:30.446     15 Dec 2020 02:50:40.570    Earth                2022.850            100.000000     15 Dec 2020 02:17:07.773
  15 Dec 2020 03:57:39.792    15 Dec 2020 03:57:49.846    15 Dec 2020 04:31:12.573     15 Dec 2020 04:31:22.698    Earth                2022.906            100.000000     15 Dec 2020 03:57:49.846
  15 Dec 2020 05:38:21.981    15 Dec 2020 05:38:32.036    15 Dec 2020 06:11:54.586     15 Dec 2020 06:12:04.712    Earth                2022.731            100.000000     15 Dec 2020 05:38:32.036
  15 Dec 2020 07:19:04.057    15 Dec 2020 07:19:14.113    15 Dec 2020 07:52:36.598     15 Dec 2020 07:52:46.725    Earth                2022.668            100.000000     15 Dec 2020 07:19:14.113
  15 Dec 2020 08:59:46.132    15 Dec 2020 08:59:56.189    15 Dec 2020 09:33:18.610     15 Dec 2020 09:33:28.738    Earth                2022.605            100.000000     15 Dec 2020 08:59:56.189
  15 Dec 2020 10:40:28.208    15 Dec 2020 10:40:38.265    15 Dec 2020 11:14:00.643     15 Dec 2020 11:14:10.770    Earth                2022.562            100.000000     15 Dec 2020 10:40:38.265
  15 Dec 2020 12:21:10.298    15 Dec 2020 12:21:20.357    15 Dec 2020 12:54:42.654     15 Dec 2020 12:54:52.785    Earth                2022.487            100.000000     15 Dec 2020 12:21:20.357
  15 Dec 2020 14:01:52.374    15 Dec 2020 14:02:02.433    15 Dec 2020 14:35:24.666     15 Dec 2020 14:35:34.798    Earth                2022.424            100.000000     15 Dec 2020 14:02:02.433
  15 Dec 2020 15:42:34.450    15 Dec 2020 15:42:44.510    15 Dec 2020 16:16:06.679     15 Dec 2020 16:16:16.807    Earth                2022.358            100.000000     15 Dec 2020 15:42:44.510
  15 Dec 2020 17:23:16.525    15 Dec 2020 17:23:26.586    15 Dec 2020 17:56:48.691     15 Dec 2020 17:56:58.820    Earth                2022.295            100.000000     15 Dec 2020 17:23:26.586
  15 Dec 2020 19:03:58.600    15 Dec 2020 19:04:08.662    15 Dec 2020 19:37:30.715     15 Dec 2020 19:37:40.848    Earth                2022.248            100.000000     15 Dec 2020 19:04:08.662
  15 Dec 2020 20:44:40.695    15 Dec 2020 20:44:50.757    15 Dec 2020 21:18:12.730     15 Dec 2020 21:18:22.863    Earth                2022.169            100.000000     15 Dec 2020 20:44:50.757
  15 Dec 2020 22:25:22.771    15 Dec 2020 22:25:32.834    15 Dec 2020 22:58:54.738     15 Dec 2020 22:59:04.873    Earth                2022.102            100.000000     15 Dec 2020 22:25:32.834
  16 Dec 2020 00:06:04.846    16 Dec 2020 00:06:14.910    16 Dec 2020 00:39:36.768     16 Dec 2020 00:39:46.906    Earth                2022.060            100.000000     16 Dec 2020 00:06:14.910
  16 Dec 2020 01:46:46.935    16 Dec 2020 01:46:57.000    16 Dec 2020 02:20:18.780     16 Dec 2020 02:20:28.919    Earth                2021.984            100.000000     16 Dec 2020 01:46:57.000
  16 Dec 2020 03:27:29.012    16 Dec 2020 03:27:39.078    16 Dec 2020 04:01:00.792     16 Dec 2020 04:01:10.928    Earth                2021.917            100.000000     16 Dec 2020 03:27:39.078
  16 Dec 2020 05:08:11.088    16 Dec 2020 05:08:21.154    16 Dec 2020 05:41:42.803     16 Dec 2020 05:41:52.941    Earth                2021.853            100.000000     16 Dec 2020 05:08:21.154
  16 Dec 2020 06:48:53.164    16 Dec 2020 06:49:03.231    16 Dec 2020 07:22:24.815     16 Dec 2020 07:22:34.953    Earth                2021.790            100.000000     16 Dec 2020 06:49:03.231
  16 Dec 2020 08:29:35.239    16 Dec 2020 08:29:45.308    16 Dec 2020 09:03:06.809     16 Dec 2020 09:03:16.948    Earth                2021.709            100.000000     16 Dec 2020 08:29:45.308
  16 Dec 2020 10:10:17.304    16 Dec 2020 10:10:27.373    16 Dec 2020 10:43:48.820     16 Dec 2020 10:43:58.963    Earth                2021.659            100.000000     16 Dec 2020 10:10:27.373
  16 Dec 2020 11:50:59.379    16 Dec 2020 11:51:09.452    16 Dec 2020 12:24:30.824     16 Dec 2020 12:24:40.967    Earth                2021.588            100.000000     16 Dec 2020 11:51:09.452
  16 Dec 2020 13:31:41.453    16 Dec 2020 13:31:51.524    16 Dec 2020 14:05:12.836     16 Dec 2020 14:05:22.979    Earth                2021.526            100.000000     16 Dec 2020 13:31:51.524
  16 Dec 2020 15:12:23.528    16 Dec 2020 15:12:33.597    16 Dec 2020 15:45:54.845     16 Dec 2020 15:46:04.987    Earth                2021.459            100.000000     16 Dec 2020 15:12:33.597
  16 Dec 2020 16:53:05.601    16 Dec 2020 16:53:15.673    16 Dec 2020 17:26:36.839     16 Dec 2020 17:26:46.983    Earth                2021.382            100.000000     16 Dec 2020 16:53:15.673
  16 Dec 2020 18:33:47.657    16 Dec 2020 18:33:57.730    16 Dec 2020 19:07:18.849     16 Dec 2020 19:07:28.993    Earth                2021.336            100.000000     16 Dec 2020 18:33:57.730
  16 Dec 2020 20:14:29.732    16 Dec 2020 20:14:39.806    16 Dec 2020 20:48:00.837     16 Dec 2020 20:48:10.982    Earth                2021.250            100.000000     16 Dec 2020 20:14:39.806
  16 Dec 2020 21:55:11.782    16 Dec 2020 21:55:21.857    16 Dec 2020 22:28:42.846     16 Dec 2020 22:28:52.992    Earth                2021.210            100.000000     16 Dec 2020 21:55:21.857
  16 Dec 2020 23:35:53.856    16 Dec 2020 23:36:03.931    17 Dec 2020 00:09:24.855     17 Dec 2020 00:09:35.001    Earth                2021.146            100.000000     16 Dec 2020 23:36:03.931
  17 Dec 2020 01:16:35.929    17 Dec 2020 01:16:46.006    17 Dec 2020 01:50:06.834     17 Dec 2020 01:50:16.982    Earth                2021.052            100.000000     17 Dec 2020 01:16:46.006
  17 Dec 2020 02:57:17.968    17 Dec 2020 02:57:28.045    17 Dec 2020 03:30:48.842     17 Dec 2020 03:30:58.991    Earth                2021.023            100.000000     17 Dec 2020 02:57:28.045
  17 Dec 2020 04:38:00.041    17 Dec 2020 04:38:10.119    17 Dec 2020 05:11:30.850     17 Dec 2020 05:11:40.999    Earth                2020.958            100.000000     17 Dec 2020 04:38:10.119
  17 Dec 2020 06:18:42.114    17 Dec 2020 06:18:52.193    17 Dec 2020 06:52:12.857     17 Dec 2020 06:52:23.007    Earth                2020.894            100.000000     17 Dec 2020 06:18:52.193
  17 Dec 2020 07:59:24.186    17 Dec 2020 07:59:34.266    17 Dec 2020 08:32:54.863     17 Dec 2020 08:33:05.016    Earth                2020.829            100.000000     17 Dec 2020 07:59:34.266
  17 Dec 2020 09:40:06.259    17 Dec 2020 09:40:16.340    17 Dec 2020 10:13:36.793     17 Dec 2020 10:13:46.945    Earth                2020.686            100.000000     17 Dec 2020 09:40:16.340
  17 Dec 2020 11:20:48.253    17 Dec 2020 11:20:58.335    17 Dec 2020 11:54:18.796     17 Dec 2020 11:54:28.949    Earth                2020.696            100.000000     17 Dec 2020 11:20:58.335
  17 Dec 2020 13:01:30.324    17 Dec 2020 13:01:40.407    17 Dec 2020 13:35:00.766     17 Dec 2020 13:35:10.920    Earth                2020.595            100.000000     17 Dec 2020 13:01:40.407
  17 Dec 2020 14:42:12.353    17 Dec 2020 14:42:22.436    17 Dec 2020 15:15:42.771     17 Dec 2020 15:15:52.928    Earth                2020.576            100.000000     17 Dec 2020 14:42:22.436
  17 Dec 2020 16:22:54.423    17 Dec 2020 16:23:04.507    17 Dec 2020 16:56:24.778     17 Dec 2020 16:56:34.933    Earth                2020.511            100.000000     17 Dec 2020 16:23:04.507
  17 Dec 2020 18:03:36.492    17 Dec 2020 18:03:46.577    17 Dec 2020 18:37:06.779     17 Dec 2020 18:37:16.938    Earth                2020.446            100.000000     17 Dec 2020 18:03:46.577
  17 Dec 2020 19:44:18.562    17 Dec 2020 19:44:28.648    17 Dec 2020 20:17:48.786     17 Dec 2020 20:17:58.943    Earth                2020.381            100.000000     17 Dec 2020 19:44:28.648
  17 Dec 2020 21:25:00.631    17 Dec 2020 21:25:10.718    17 Dec 2020 21:58:30.662     17 Dec 2020 21:58:40.820    Earth                2020.189            100.000000     17 Dec 2020 21:25:10.718
  17 Dec 2020 23:05:42.567    17 Dec 2020 23:05:52.655    17 Dec 2020 23:39:12.662     17 Dec 2020 23:39:22.821    Earth                2020.254            100.000000     17 Dec 2020 23:05:52.655
  18 Dec 2020 00:46:24.633    18 Dec 2020 00:46:34.721    18 Dec 2020 01:19:54.662     18 Dec 2020 01:20:04.825    Earth                2020.192            100.000000     18 Dec 2020 00:46:34.721
  18 Dec 2020 02:27:06.699    18 Dec 2020 02:27:16.788    18 Dec 2020 03:00:36.598     18 Dec 2020 03:00:46.758    Earth                2020.059            100.000000     18 Dec 2020 02:27:16.788
  18 Dec 2020 04:07:48.694    18 Dec 2020 04:07:58.784    18 Dec 2020 04:41:18.595     18 Dec 2020 04:41:28.757    Earth                2020.063            100.000000     18 Dec 2020 04:07:58.784
  18 Dec 2020 05:48:30.758    18 Dec 2020 05:48:40.849    18 Dec 2020 06:22:00.596     18 Dec 2020 06:22:10.758    Earth                2020.000            100.000000     18 Dec 2020 05:48:40.849
  18 Dec 2020 07:29:12.821    18 Dec 2020 07:29:22.913    18 Dec 2020 08:02:42.593     18 Dec 2020 08:02:52.753    Earth                2019.932            100.000000     18 Dec 2020 07:29:22.913
  18 Dec 2020 09:09:54.887    18 Dec 2020 09:10:04.977    18 Dec 2020 09:43:24.502     18 Dec 2020 09:43:34.665    Earth                2019.777            100.000000     18 Dec 2020 09:10:04.977
  18 Dec 2020 10:50:36.859    18 Dec 2020 10:50:46.952    18 Dec 2020 11:24:06.494     18 Dec 2020 11:24:16.662    Earth                2019.804            100.000000     18 Dec 2020 10:50:46.952
  18 Dec 2020 12:31:18.917    18 Dec 2020 12:31:29.011    18 Dec 2020 13:04:48.489     18 Dec 2020 13:04:58.655    Earth                2019.738            100.000000     18 Dec 2020 12:31:29.011
  18 Dec 2020 14:12:00.978    18 Dec 2020 14:12:11.073    18 Dec 2020 14:45:30.483     18 Dec 2020 14:45:40.650    Earth                2019.672            100.000000     18 Dec 2020 14:12:11.073
  18 Dec 2020 15:52:43.038    18 Dec 2020 15:52:53.134    18 Dec 2020 16:26:12.477     18 Dec 2020 16:26:22.645    Earth                2019.607            100.000000     18 Dec 2020 15:52:53.134
  18 Dec 2020 17:33:25.098    18 Dec 2020 17:33:35.195    18 Dec 2020 18:06:54.320     18 Dec 2020 18:07:04.489    Earth                2019.391            100.000000     18 Dec 2020 17:33:35.195
  18 Dec 2020 19:14:06.991    18 Dec 2020 19:14:17.089    18 Dec 2020 19:47:36.310     18 Dec 2020 19:47:46.480    Earth                2019.488            100.000000     18 Dec 2020 19:14:17.089
  18 Dec 2020 20:54:49.048    18 Dec 2020 20:54:59.146    18 Dec 2020 21:28:18.300     18 Dec 2020 21:28:28.470    Earth                2019.422            100.000000     18 Dec 2020 20:54:59.146
  18 Dec 2020 22:35:31.103    18 Dec 2020 22:35:41.203    18 Dec 2020 23:09:00.205     18 Dec 2020 23:09:10.376    Earth                2019.273            100.000000     18 Dec 2020 22:35:41.203
  19 Dec 2020 00:16:13.061    19 Dec 2020 00:16:23.162    19 Dec 2020 00:49:42.191     19 Dec 2020 00:49:52.363    Earth                2019.302            100.000000     19 Dec 2020 00:16:23.162
  19 Dec 2020 01:56:55.113    19 Dec 2020 01:57:05.215    19 Dec 2020 02:30:24.086     19 Dec 2020 02:30:34.259    Earth                2019.146            100.000000     19 Dec 2020 01:57:05.215
  19 Dec 2020 03:37:37.076    19 Dec 2020 03:37:47.178    19 Dec 2020 04:11:06.069     19 Dec 2020 04:11:16.243    Earth                2019.167            100.000000     19 Dec 2020 03:37:47.178
  19 Dec 2020 05:18:19.125    19 Dec 2020 05:18:29.228    19 Dec 2020 05:51:48.050     19 Dec 2020 05:51:58.224    Earth                2019.099            100.000000     19 Dec 2020 05:18:29.228
  19 Dec 2020 06:59:01.174    19 Dec 2020 06:59:11.278    19 Dec 2020 07:32:30.032     19 Dec 2020 07:32:40.208    Earth                2019.033            100.000000     19 Dec 2020 06:59:11.278
  19 Dec 2020 08:39:43.223    19 Dec 2020 08:39:53.328    19 Dec 2020 09:13:12.016     19 Dec 2020 09:13:22.190    Earth                2018.967            100.000000     19 Dec 2020 08:39:53.328
  19 Dec 2020 10:20:25.271    19 Dec 2020 10:20:35.377    19 Dec 2020 10:53:53.865     19 Dec 2020 10:54:04.045    Earth                2018.774            100.000000     19 Dec 2020 10:20:35.377
  19 Dec 2020 12:01:07.175    19 Dec 2020 12:01:17.282    19 Dec 2020 12:34:35.846     19 Dec 2020 12:34:46.024    Earth                2018.849            100.000000     19 Dec 2020 12:01:17.282
  19 Dec 2020 13:41:49.219    19 Dec 2020 13:41:59.327    19 Dec 2020 14:15:17.820     19 Dec 2020 14:15:27.999    Earth                2018.780            100.000000     19 Dec 2020 13:41:59.327
  19 Dec 2020 15:22:31.263    19 Dec 2020 15:22:41.371    19 Dec 2020 15:55:59.796     19 Dec 2020 15:56:09.976    Earth                2018.714            100.000000     19 Dec 2020 15:22:41.371
  19 Dec 2020 17:03:13.306    19 Dec 2020 17:03:23.415    19 Dec 2020 17:36:41.772     19 Dec 2020 17:36:51.953    Earth                2018.647            100.000000     19 Dec 2020 17:03:23.415
  19 Dec 2020 18:43:55.349    19 Dec 2020 18:44:05.459    19 Dec 2020 19:17:23.664     19 Dec 2020 19:17:33.843    Earth                2018.494            100.000000     19 Dec 2020 18:44:05.459
  19 Dec 2020 20:24:37.296    19 Dec 2020 20:24:47.407    19 Dec 2020 20:58:05.634     19 Dec 2020 20:58:15.816    Earth                2018.521            100.000000     19 Dec 2020 20:24:47.407
  19 Dec 2020 22:05:19.335    19 Dec 2020 22:05:29.446    19 Dec 2020 22:38:47.605     19 Dec 2020 22:38:57.789    Earth                2018.454            100.000000     19 Dec 2020 22:05:29.446
  19 Dec 2020 23:46:01.373    19 Dec 2020 23:46:11.486    20 Dec 2020 00:19:29.577     20 Dec 2020 00:19:39.764    Earth                2018.391            100.000000     19 Dec 2020 23:46:11.486
  20 Dec 2020 01:26:43.411    20 Dec 2020 01:26:53.525    20 Dec 2020 02:00:11.547     20 Dec 2020 02:00:21.737    Earth                2018.325            100.000000     20 Dec 2020 01:26:53.525
  20 Dec 2020 03:07:25.449    20 Dec 2020 03:07:35.564    20 Dec 2020 03:40:53.349     20 Dec 2020 03:41:03.535    Earth                2018.086            100.000000     20 Dec 2020 03:07:35.564
  20 Dec 2020 04:48:07.306    20 Dec 2020 04:48:17.422    20 Dec 2020 05:21:35.314     20 Dec 2020 05:21:45.501    Earth                2018.195            100.000000     20 Dec 2020 04:48:17.422
  20 Dec 2020 06:28:49.338    20 Dec 2020 06:28:59.457    20 Dec 2020 07:02:17.278     20 Dec 2020 07:02:27.467    Earth                2018.129            100.000000     20 Dec 2020 06:28:59.457
  20 Dec 2020 08:09:31.372    20 Dec 2020 08:09:41.489    20 Dec 2020 08:42:59.170     20 Dec 2020 08:43:09.361    Earth                2017.989            100.000000     20 Dec 2020 08:09:41.489
  20 Dec 2020 09:50:13.323    20 Dec 2020 09:50:23.441    20 Dec 2020 10:23:41.134     20 Dec 2020 10:23:51.321    Earth                2017.997            100.000000     20 Dec 2020 09:50:23.441
  20 Dec 2020 11:30:55.352    20 Dec 2020 11:31:05.471    20 Dec 2020 12:04:23.092     20 Dec 2020 12:04:33.282    Earth                2017.930            100.000000     20 Dec 2020 11:31:05.471
  20 Dec 2020 13:11:37.379    20 Dec 2020 13:11:47.499    20 Dec 2020 13:45:05.052     20 Dec 2020 13:45:15.243    Earth                2017.864            100.000000     20 Dec 2020 13:11:47.499
  20 Dec 2020 14:52:19.407    20 Dec 2020 14:52:29.527    20 Dec 2020 15:25:46.698     20 Dec 2020 15:25:56.890    Earth                2017.484            100.000000     20 Dec 2020 14:52:29.527
  20 Dec 2020 16:33:01.111    20 Dec 2020 16:33:11.232    20 Dec 2020 17:06:28.644     20 Dec 2020 17:06:38.837    Earth                2017.726            100.000000     20 Dec 2020 16:33:11.232
  20 Dec 2020 18:13:43.123    20 Dec 2020 18:13:53.245    20 Dec 2020 18:47:10.605     20 Dec 2020 18:47:20.798    Earth                2017.675            100.000000     20 Dec 2020 18:13:53.245
  20 Dec 2020 19:54:25.149    20 Dec 2020 19:54:35.271    20 Dec 2020 20:27:52.551     20 Dec 2020 20:28:02.746    Earth                2017.598            100.000000     20 Dec 2020 19:54:35.271
  20 Dec 2020 21:35:07.160    20 Dec 2020 21:35:17.284    20 Dec 2020 22:08:34.495     20 Dec 2020 22:08:44.691    Earth                2017.531            100.000000     20 Dec 2020 21:35:17.284
  20 Dec 2020 23:15:49.171    20 Dec 2020 23:15:59.296    20 Dec 2020 23:49:16.438     20 Dec 2020 23:49:26.635    Earth                2017.464            100.000000     20 Dec 2020 23:15:59.296
  21 Dec 2020 00:56:31.182    21 Dec 2020 00:56:41.307    21 Dec 2020 01:29:58.381     21 Dec 2020 01:30:08.578    Earth                2017.396            100.000000     21 Dec 2020 00:56:41.307
  21 Dec 2020 02:37:13.191    21 Dec 2020 02:37:23.317    21 Dec 2020 03:10:40.328     21 Dec 2020 03:10:50.528    Earth                2017.337            100.000000     21 Dec 2020 02:37:23.317
  21 Dec 2020 04:17:55.204    21 Dec 2020 04:18:05.331    21 Dec 2020 04:51:22.271     21 Dec 2020 04:51:32.468    Earth                2017.264            100.000000     21 Dec 2020 04:18:05.331
  21 Dec 2020 05:58:37.212    21 Dec 2020 05:58:47.340    21 Dec 2020 06:32:04.209     21 Dec 2020 06:32:14.411    Earth                2017.199            100.000000     21 Dec 2020 05:58:47.340
  21 Dec 2020 07:39:19.220    21 Dec 2020 07:39:29.349    21 Dec 2020 08:12:46.151     21 Dec 2020 08:12:56.349    Earth                2017.129            100.000000     21 Dec 2020 07:39:29.349
  21 Dec 2020 09:20:01.227    21 Dec 2020 09:20:11.357    21 Dec 2020 09:53:28.087     21 Dec 2020 09:53:38.288    Earth                2017.061            100.000000     21 Dec 2020 09:20:11.357
  21 Dec 2020 11:00:43.233    21 Dec 2020 11:00:53.364    21 Dec 2020 11:34:10.005     21 Dec 2020 11:34:20.207    Earth                2016.974            100.000000     21 Dec 2020 11:00:53.364
  21 Dec 2020 12:41:25.219    21 Dec 2020 12:41:35.350    21 Dec 2020 13:14:51.942     21 Dec 2020 13:15:02.145    Earth                2016.926            100.000000     21 Dec 2020 12:41:35.350
  21 Dec 2020 14:22:07.223    21 Dec 2020 14:22:17.355    21 Dec 2020 14:55:33.881     21 Dec 2020 14:55:44.082    Earth                2016.858            100.000000     21 Dec 2020 14:22:17.355
  21 Dec 2020 16:02:49.227    21 Dec 2020 16:02:59.360    21 Dec 2020 16:36:15.813     21 Dec 2020 16:36:26.018    Earth                2016.791            100.000000     21 Dec 2020 16:02:59.360
  21 Dec 2020 17:43:31.229    21 Dec 2020 17:43:41.363    21 Dec 2020 18:16:57.747     21 Dec 2020 18:17:07.953    Earth                2016.724            100.000000     21 Dec 2020 17:43:41.363
  21 Dec 2020 19:24:13.233    21 Dec 2020 19:24:23.367    21 Dec 2020 19:57:39.681     21 Dec 2020 19:57:49.888    Earth                2016.655            100.000000     21 Dec 2020 19:24:23.367
  21 Dec 2020 21:04:55.234    21 Dec 2020 21:05:05.369    21 Dec 2020 21:38:21.614     21 Dec 2020 21:38:31.822    Earth                2016.588            100.000000     21 Dec 2020 21:05:05.369
  21 Dec 2020 22:45:37.234    21 Dec 2020 22:45:47.371    21 Dec 2020 23:19:03.546     21 Dec 2020 23:19:13.755    Earth                2016.520            100.000000     21 Dec 2020 22:45:47.371
  22 Dec 2020 00:26:19.234    22 Dec 2020 00:26:29.372    22 Dec 2020 00:59:45.477     22 Dec 2020 00:59:55.687    Earth                2016.452            100.000000     22 Dec 2020 00:26:29.372
  22 Dec 2020 02:07:01.234    22 Dec 2020 02:07:11.372    22 Dec 2020 02:40:27.408     22 Dec 2020 02:40:37.618    Earth                2016.385            100.000000     22 Dec 2020 02:07:11.372
  22 Dec 2020 03:47:43.232    22 Dec 2020 03:47:53.371    22 Dec 2020 04:21:09.342     22 Dec 2020 04:21:19.554    Earth                2016.322            100.000000     22 Dec 2020 03:47:53.371
  22 Dec 2020 05:28:25.228    22 Dec 2020 05:28:35.368    22 Dec 2020 06:01:51.274     22 Dec 2020 06:02:01.484    Earth                2016.256            100.000000     22 Dec 2020 05:28:35.368
  22 Dec 2020 07:09:07.228    22 Dec 2020 07:09:17.366    22 Dec 2020 07:42:33.203     22 Dec 2020 07:42:43.413    Earth                2016.185            100.000000     22 Dec 2020 07:09:17.366
  22 Dec 2020 08:49:49.222    22 Dec 2020 08:49:59.363    22 Dec 2020 09:23:15.128     22 Dec 2020 09:23:25.342    Earth                2016.120            100.000000     22 Dec 2020 08:49:59.363
  22 Dec 2020 10:30:31.217    22 Dec 2020 10:30:41.360    22 Dec 2020 11:03:57.048     22 Dec 2020 11:04:07.262    Earth                2016.045            100.000000     22 Dec 2020 10:30:41.360
